[
	{
		"aid" : 2121,
		"to_institution_id" : 535,
		"to_name" : "Tsinghua University",
		"to_oid" : 623,
		"startdate" : "2010-01-01",
		"to_latitude" : 39.999567,
		"to_longitude" : 116.331991,
		"to_rank" : 86,
		"recruiter_type" : 1,
		"description" : "Academic organization (economics department)",
		"aid" : 2121,
		"from_oid" : 186,
		"from_institution_id" : 2,
		"latitude" : 42.2738566,
		"longitude" : -83.7375824,
		"from_institution_name" : "University of Michigan",
		"category_id" : 1,
		"name" : "Development; Growth",
		"rank" : 14
	},
	{
		"aid" : 3816,
		"to_institution_id" : 2205,
		"to_name" : "Amherst College",
		"to_oid" : 3503,
		"startdate" : "2010-01-01",
		"to_latitude" : 42.3709104,
		"to_longitude" : -72.5170028,
		"to_rank" : null,
		"recruiter_type" : 1,
		"description" : "Academic organization (economics department)",
		"aid" : 3816,
		"from_oid" : 186,
		"from_institution_id" : 2,
		"latitude" : 42.2738566,
		"longitude" : -83.7375824,
		"from_institution_name" : "University of Michigan",
		"category_id" : 1,
		"name" : "Development; Growth",
		"rank" : 14
	},
	{
		"aid" : 4160,
		"to_institution_id" : 1489,
		"to_name" : "International Food Policy Research Institute (IFPRI)",
		"to_oid" : 2600,
		"startdate" : "2006-01-01",
		"to_latitude" : 38.9015167,
		"to_longitude" : -77.0283165,
		"to_rank" : null,
		"recruiter_type" : 7,
		"description" : "Private (non-profit) business or organization",
		"aid" : 4160,
		"from_oid" : 186,
		"from_institution_id" : 2,
		"latitude" : 42.2738566,
		"longitude" : -83.7375824,
		"from_institution_name" : "University of Michigan",
		"category_id" : 1,
		"name" : "Development; Growth",
		"rank" : 14
	},
	{
		"aid" : 4160,
		"to_institution_id" : 270,
		"to_name" : "Colby College",
		"to_oid" : 316,
		"startdate" : "2003-01-01",
		"to_latitude" : 44.5638691,
		"to_longitude" : -69.6626362,
		"to_rank" : null,
		"recruiter_type" : 1,
		"description" : "Academic organization (economics department)",
		"aid" : 4160,
		"from_oid" : 186,
		"from_institution_id" : 2,
		"latitude" : 42.2738566,
		"longitude" : -83.7375824,
		"from_institution_name" : "University of Michigan",
		"category_id" : 1,
		"name" : "Development; Growth",
		"rank" : 14
	},
	{
		"aid" : 7484,
		"to_institution_id" : 13,
		"to_name" : "University of Maryland",
		"to_oid" : 20,
		"startdate" : "2011-08-01",
		"to_latitude" : 38.9847953,
		"to_longitude" : -76.9440122,
		"to_rank" : 24,
		"recruiter_type" : 1,
		"description" : "Academic organization (economics department)",
		"aid" : 7484,
		"from_oid" : 186,
		"from_institution_id" : 2,
		"latitude" : 42.2738566,
		"longitude" : -83.7375824,
		"from_institution_name" : "University of Michigan",
		"category_id" : 1,
		"name" : "Development; Growth",
		"rank" : 14
	},
	{
		"aid" : 7484,
		"to_institution_id" : 13,
		"to_name" : "University of Maryland",
		"to_oid" : 20,
		"startdate" : "2018-08-01",
		"to_latitude" : 38.9847953,
		"to_longitude" : -76.9440122,
		"to_rank" : 24,
		"recruiter_type" : 1,
		"description" : "Academic organization (economics department)",
		"aid" : 7484,
		"from_oid" : 186,
		"from_institution_id" : 2,
		"latitude" : 42.2738566,
		"longitude" : -83.7375824,
		"from_institution_name" : "University of Michigan",
		"category_id" : 1,
		"name" : "Development; Growth",
		"rank" : 14
	},
	{
		"aid" : 7484,
		"to_institution_id" : 18,
		"to_name" : "Northwestern University",
		"to_oid" : 25,
		"startdate" : "2019-01-01",
		"to_latitude" : 42.0571538,
		"to_longitude" : -87.6716364,
		"to_rank" : 12,
		"recruiter_type" : 1,
		"description" : "Academic organization (economics department)",
		"aid" : 7484,
		"from_oid" : 186,
		"from_institution_id" : 2,
		"latitude" : 42.2738566,
		"longitude" : -83.7375824,
		"from_institution_name" : "University of Michigan",
		"category_id" : 1,
		"name" : "Development; Growth",
		"rank" : 14
	},
	{
		"aid" : 7484,
		"to_institution_id" : 1536,
		"to_name" : "Center for Global Development",
		"to_oid" : 2156,
		"startdate" : "2011-08-01",
		"to_latitude" : 38.9041209,
		"to_longitude" : -77.0461021,
		"to_rank" : null,
		"recruiter_type" : 7,
		"description" : "Private (non-profit) business or organization",
		"aid" : 7484,
		"from_oid" : 186,
		"from_institution_id" : 2,
		"latitude" : 42.2738566,
		"longitude" : -83.7375824,
		"from_institution_name" : "University of Michigan",
		"category_id" : 1,
		"name" : "Development; Growth",
		"rank" : 14
	},
	{
		"aid" : 8032,
		"to_institution_id" : 1488,
		"to_name" : "Oregon State University",
		"to_oid" : 2054,
		"startdate" : "2011-01-01",
		"to_latitude" : 44.5637806,
		"to_longitude" : -123.2794443,
		"to_rank" : null,
		"recruiter_type" : 3,
		"description" : "Academic organization (agricultural/resource economics department)",
		"aid" : 8032,
		"from_oid" : 186,
		"from_institution_id" : 2,
		"latitude" : 42.2738566,
		"longitude" : -83.7375824,
		"from_institution_name" : "University of Michigan",
		"category_id" : 1,
		"name" : "Development; Growth",
		"rank" : 14
	},
	{
		"aid" : 8032,
		"to_institution_id" : 1488,
		"to_name" : "Oregon State University",
		"to_oid" : 2054,
		"startdate" : "2017-01-01",
		"to_latitude" : 44.5637806,
		"to_longitude" : -123.2794443,
		"to_rank" : null,
		"recruiter_type" : 3,
		"description" : "Academic organization (agricultural/resource economics department)",
		"aid" : 8032,
		"from_oid" : 186,
		"from_institution_id" : 2,
		"latitude" : 42.2738566,
		"longitude" : -83.7375824,
		"from_institution_name" : "University of Michigan",
		"category_id" : 1,
		"name" : "Development; Growth",
		"rank" : 14
	},
	{
		"aid" : 8032,
		"to_institution_id" : 758,
		"to_name" : "Universidad Adolfo Ibáñez",
		"to_oid" : 899,
		"startdate" : "2018-01-01",
		"to_latitude" : -33.4871046,
		"to_longitude" : -70.5186778,
		"to_rank" : null,
		"recruiter_type" : 2,
		"description" : "Academic organization (business school)",
		"aid" : 8032,
		"from_oid" : 186,
		"from_institution_id" : 2,
		"latitude" : 42.2738566,
		"longitude" : -83.7375824,
		"from_institution_name" : "University of Michigan",
		"category_id" : 1,
		"name" : "Development; Growth",
		"rank" : 14
	},
	{
		"aid" : 11880,
		"to_institution_id" : 439,
		"to_name" : "National University of Singapore",
		"to_oid" : 507,
		"startdate" : "2013-03-08",
		"to_latitude" : 1.2966426,
		"to_longitude" : 103.7763939,
		"to_rank" : null,
		"recruiter_type" : 1,
		"description" : "Academic organization (economics department)",
		"aid" : 11880,
		"from_oid" : 186,
		"from_institution_id" : 2,
		"latitude" : 42.2738566,
		"longitude" : -83.7375824,
		"from_institution_name" : "University of Michigan",
		"category_id" : 1,
		"name" : "Development; Growth",
		"rank" : 14
	},
	{
		"aid" : 14433,
		"to_institution_id" : 843,
		"to_name" : "Colorado College",
		"to_oid" : 1012,
		"startdate" : "2015-07-01",
		"to_latitude" : 38.846594,
		"to_longitude" : -104.824394,
		"to_rank" : null,
		"recruiter_type" : 1,
		"description" : "Academic organization (economics department)",
		"aid" : 14433,
		"from_oid" : 186,
		"from_institution_id" : 2,
		"latitude" : 42.2738566,
		"longitude" : -83.7375824,
		"from_institution_name" : "University of Michigan",
		"category_id" : 1,
		"name" : "Development; Growth",
		"rank" : 14
	},
	{
		"aid" : 14994,
		"to_institution_id" : 311,
		"to_name" : "Massachusetts Institute of Technology",
		"to_oid" : 361,
		"startdate" : "2015-03-01",
		"to_latitude" : 42.3606249,
		"to_longitude" : -71.0835567,
		"to_rank" : 7,
		"recruiter_type" : 1,
		"description" : "Academic organization (economics department)",
		"aid" : 14994,
		"from_oid" : 186,
		"from_institution_id" : 2,
		"latitude" : 42.2738566,
		"longitude" : -83.7375824,
		"from_institution_name" : "University of Michigan",
		"category_id" : 1,
		"name" : "Development; Growth",
		"rank" : 14
	},
	{
		"aid" : 14994,
		"to_institution_id" : 1579,
		"to_name" : "University of Wisconsin, Milwaukee",
		"to_oid" : 2230,
		"startdate" : "2003-01-01",
		"to_latitude" : 43.078263,
		"to_longitude" : -87.8819686,
		"to_rank" : null,
		"recruiter_type" : 1,
		"description" : "Academic organization (economics department)",
		"aid" : 14994,
		"from_oid" : 186,
		"from_institution_id" : 2,
		"latitude" : 42.2738566,
		"longitude" : -83.7375824,
		"from_institution_name" : "University of Michigan",
		"category_id" : 1,
		"name" : "Development; Growth",
		"rank" : 14
	},
	{
		"aid" : 14994,
		"to_institution_id" : 562,
		"to_name" : "University of Minnesota, Twin Cities",
		"to_oid" : 1090,
		"startdate" : "2006-01-01",
		"to_latitude" : 44.9835527,
		"to_longitude" : -93.1843936,
		"to_rank" : null,
		"recruiter_type" : 1,
		"description" : "Academic organization (economics department)",
		"aid" : 14994,
		"from_oid" : 186,
		"from_institution_id" : 2,
		"latitude" : 42.2738566,
		"longitude" : -83.7375824,
		"from_institution_name" : "University of Michigan",
		"category_id" : 1,
		"name" : "Development; Growth",
		"rank" : 14
	},
	{
		"aid" : 15148,
		"to_institution_id" : 439,
		"to_name" : "National University of Singapore",
		"to_oid" : 507,
		"startdate" : "2013-01-01",
		"to_latitude" : 1.2966426,
		"to_longitude" : 103.7763939,
		"to_rank" : null,
		"recruiter_type" : 1,
		"description" : "Academic organization (economics department)",
		"aid" : 15148,
		"from_oid" : 186,
		"from_institution_id" : 2,
		"latitude" : 42.2738566,
		"longitude" : -83.7375824,
		"from_institution_name" : "University of Michigan",
		"category_id" : 1,
		"name" : "Development; Growth",
		"rank" : 14
	},
	{
		"aid" : 15148,
		"to_institution_id" : 664,
		"to_name" : "University of Vermont",
		"to_oid" : 782,
		"startdate" : "2016-01-01",
		"to_latitude" : 44.4778528,
		"to_longitude" : -73.1964637,
		"to_rank" : null,
		"recruiter_type" : 4,
		"description" : "Academic organization (other than econ, business, or ag econ)",
		"aid" : 15148,
		"from_oid" : 186,
		"from_institution_id" : 2,
		"latitude" : 42.2738566,
		"longitude" : -83.7375824,
		"from_institution_name" : "University of Michigan",
		"category_id" : 1,
		"name" : "Development; Growth",
		"rank" : 14
	},
	{
		"aid" : 15384,
		"to_institution_id" : 465,
		"to_name" : "Ohio State University",
		"to_oid" : 499,
		"startdate" : "2011-10-01",
		"to_latitude" : 40.0017935,
		"to_longitude" : -83.0093428,
		"to_rank" : 60,
		"recruiter_type" : 1,
		"description" : "Academic organization (economics department)",
		"aid" : 15384,
		"from_oid" : 186,
		"from_institution_id" : 2,
		"latitude" : 42.2738566,
		"longitude" : -83.7375824,
		"from_institution_name" : "University of Michigan",
		"category_id" : 1,
		"name" : "Development; Growth",
		"rank" : 14
	},
	{
		"aid" : 15384,
		"to_institution_id" : 1592,
		"to_name" : "Claremont McKenna College",
		"to_oid" : 2254,
		"startdate" : "2008-07-01",
		"to_latitude" : 34.1017767,
		"to_longitude" : -117.7079219,
		"to_rank" : null,
		"recruiter_type" : 1,
		"description" : "Academic organization (economics department)",
		"aid" : 15384,
		"from_oid" : 186,
		"from_institution_id" : 2,
		"latitude" : 42.2738566,
		"longitude" : -83.7375824,
		"from_institution_name" : "University of Michigan",
		"category_id" : 1,
		"name" : "Development; Growth",
		"rank" : 14
	},
	{
		"aid" : 15384,
		"to_institution_id" : 748,
		"to_name" : "Millennium Challenge Corporation",
		"to_oid" : 887,
		"startdate" : "2017-01-01",
		"to_latitude" : 0,
		"to_longitude" : 0,
		"to_rank" : null,
		"recruiter_type" : 5,
		"description" : "Government agency or commission",
		"aid" : 15384,
		"from_oid" : 186,
		"from_institution_id" : 2,
		"latitude" : 42.2738566,
		"longitude" : -83.7375824,
		"from_institution_name" : "University of Michigan",
		"category_id" : 1,
		"name" : "Development; Growth",
		"rank" : 14
	},
	{
		"aid" : 15391,
		"to_institution_id" : 33,
		"to_name" : "Michigan State University",
		"to_oid" : 1151,
		"startdate" : "2015-03-08",
		"to_latitude" : 42.7310122,
		"to_longitude" : -84.4793057,
		"to_rank" : 73,
		"recruiter_type" : 4,
		"description" : "Academic organization (other than econ, business, or ag econ)",
		"aid" : 15391,
		"from_oid" : 186,
		"from_institution_id" : 2,
		"latitude" : 42.2738566,
		"longitude" : -83.7375824,
		"from_institution_name" : "University of Michigan",
		"category_id" : 1,
		"name" : "Development; Growth",
		"rank" : 14
	},
	{
		"aid" : 15648,
		"to_institution_id" : 17,
		"to_name" : "Duke University",
		"to_oid" : 24,
		"startdate" : "2014-01-01",
		"to_latitude" : 36.0014258,
		"to_longitude" : -78.9382286,
		"to_rank" : 15,
		"recruiter_type" : 1,
		"description" : "Academic organization (economics department)",
		"aid" : 15648,
		"from_oid" : 186,
		"from_institution_id" : 2,
		"latitude" : 42.2738566,
		"longitude" : -83.7375824,
		"from_institution_name" : "University of Michigan",
		"category_id" : 1,
		"name" : "Development; Growth",
		"rank" : 14
	},
	{
		"aid" : 15648,
		"to_institution_id" : 424,
		"to_name" : "World Bank",
		"to_oid" : 1244,
		"startdate" : "2013-01-01",
		"to_latitude" : 52.5009041,
		"to_longitude" : 13.4129247,
		"to_rank" : null,
		"recruiter_type" : 8,
		"description" : "Other type of organization",
		"aid" : 15648,
		"from_oid" : 186,
		"from_institution_id" : 2,
		"latitude" : 42.2738566,
		"longitude" : -83.7375824,
		"from_institution_name" : "University of Michigan",
		"category_id" : 1,
		"name" : "Development; Growth",
		"rank" : 14
	},
	{
		"aid" : 16077,
		"to_institution_id" : 1489,
		"to_name" : "International Food Policy Research Institute (IFPRI)",
		"to_oid" : 2600,
		"startdate" : "2013-08-01",
		"to_latitude" : 38.9015167,
		"to_longitude" : -77.0283165,
		"to_rank" : null,
		"recruiter_type" : 7,
		"description" : "Private (non-profit) business or organization",
		"aid" : 16077,
		"from_oid" : 186,
		"from_institution_id" : 2,
		"latitude" : 42.2738566,
		"longitude" : -83.7375824,
		"from_institution_name" : "University of Michigan",
		"category_id" : 1,
		"name" : "Development; Growth",
		"rank" : 14
	},
	{
		"aid" : 19804,
		"to_institution_id" : 1266,
		"to_name" : "University of California, Santa Cruz",
		"to_oid" : 1601,
		"startdate" : "2014-07-01",
		"to_latitude" : 36.9880503,
		"to_longitude" : -122.0582093,
		"to_rank" : null,
		"recruiter_type" : 1,
		"description" : "Academic organization (economics department)",
		"aid" : 19804,
		"from_oid" : 186,
		"from_institution_id" : 2,
		"latitude" : 42.2738566,
		"longitude" : -83.7375824,
		"from_institution_name" : "University of Michigan",
		"category_id" : 1,
		"name" : "Development; Growth",
		"rank" : 14
	},
	{
		"aid" : 20693,
		"to_institution_id" : 358,
		"to_name" : "University of Georgia",
		"to_oid" : 416,
		"startdate" : "2014-01-01",
		"to_latitude" : 33.953866,
		"to_longitude" : -83.375103,
		"to_rank" : null,
		"recruiter_type" : 1,
		"description" : "Academic organization (economics department)",
		"aid" : 20693,
		"from_oid" : 186,
		"from_institution_id" : 2,
		"latitude" : 42.2738566,
		"longitude" : -83.7375824,
		"from_institution_name" : "University of Michigan",
		"category_id" : 1,
		"name" : "Development; Growth",
		"rank" : 14
	},
	{
		"aid" : 20961,
		"to_institution_id" : 2205,
		"to_name" : "Amherst College",
		"to_oid" : 3503,
		"startdate" : "2014-01-01",
		"to_latitude" : 42.3709104,
		"to_longitude" : -72.5170028,
		"to_rank" : null,
		"recruiter_type" : 1,
		"description" : "Academic organization (economics department)",
		"aid" : 20961,
		"from_oid" : 186,
		"from_institution_id" : 2,
		"latitude" : 42.2738566,
		"longitude" : -83.7375824,
		"from_institution_name" : "University of Michigan",
		"category_id" : 1,
		"name" : "Development; Growth",
		"rank" : 14
	},
	{
		"aid" : 28614,
		"to_institution_id" : 2275,
		"to_name" : "Mathematica Policy Research",
		"to_oid" : 3632,
		"startdate" : "2016-03-08",
		"to_latitude" : 41.8879004,
		"to_longitude" : -87.6237183,
		"to_rank" : null,
		"recruiter_type" : 6,
		"description" : "Private (for profit) business or organization",
		"aid" : 28614,
		"from_oid" : 186,
		"from_institution_id" : 2,
		"latitude" : 42.2738566,
		"longitude" : -83.7375824,
		"from_institution_name" : "University of Michigan",
		"category_id" : 1,
		"name" : "Development; Growth",
		"rank" : 14
	},
	{
		"aid" : 33615,
		"to_institution_id" : 225,
		"to_name" : "International Monetary Fund (IMF)",
		"to_oid" : 1170,
		"startdate" : "2018-03-08",
		"to_latitude" : 0,
		"to_longitude" : 0,
		"to_rank" : null,
		"recruiter_type" : 8,
		"description" : "Other type of organization",
		"aid" : 33615,
		"from_oid" : 186,
		"from_institution_id" : 2,
		"latitude" : 42.2738566,
		"longitude" : -83.7375824,
		"from_institution_name" : "University of Michigan",
		"category_id" : 1,
		"name" : "Development; Growth",
		"rank" : 14
	},
	{
		"aid" : 33727,
		"to_institution_id" : 290,
		"to_name" : "Yale University",
		"to_oid" : 336,
		"startdate" : "2017-01-01",
		"to_latitude" : 41.3138919,
		"to_longitude" : -72.9240345,
		"to_rank" : 11,
		"recruiter_type" : 1,
		"description" : "Academic organization (economics department)",
		"aid" : 33727,
		"from_oid" : 186,
		"from_institution_id" : 2,
		"latitude" : 42.2738566,
		"longitude" : -83.7375824,
		"from_institution_name" : "University of Michigan",
		"category_id" : 1,
		"name" : "Development; Growth",
		"rank" : 14
	},
	{
		"aid" : 33727,
		"to_institution_id" : 302,
		"to_name" : "American University",
		"to_oid" : 1185,
		"startdate" : "2017-01-01",
		"to_latitude" : 38.9357756,
		"to_longitude" : -77.0883965,
		"to_rank" : null,
		"recruiter_type" : 4,
		"description" : "Academic organization (other than econ, business, or ag econ)",
		"aid" : 33727,
		"from_oid" : 186,
		"from_institution_id" : 2,
		"latitude" : 42.2738566,
		"longitude" : -83.7375824,
		"from_institution_name" : "University of Michigan",
		"category_id" : 1,
		"name" : "Development; Growth",
		"rank" : 14
	},
	{
		"aid" : 35553,
		"to_institution_id" : 702,
		"to_name" : "Universidad del Rosario",
		"to_oid" : 832,
		"startdate" : "2020-07-01",
		"to_latitude" : 4.6001576,
		"to_longitude" : -74.0734574,
		"to_rank" : null,
		"recruiter_type" : 1,
		"description" : "Academic organization (economics department)",
		"aid" : 35553,
		"from_oid" : 186,
		"from_institution_id" : 2,
		"latitude" : 42.2738566,
		"longitude" : -83.7375824,
		"from_institution_name" : "University of Michigan",
		"category_id" : 1,
		"name" : "Development; Growth",
		"rank" : 14
	},
	{
		"aid" : 35553,
		"to_institution_id" : 797,
		"to_name" : "NHH, Norwegian School of Economics",
		"to_oid" : 954,
		"startdate" : "2019-07-01",
		"to_latitude" : 60.4229376,
		"to_longitude" : 5.3024087,
		"to_rank" : null,
		"recruiter_type" : 1,
		"description" : "Academic organization (economics department)",
		"aid" : 35553,
		"from_oid" : 186,
		"from_institution_id" : 2,
		"latitude" : 42.2738566,
		"longitude" : -83.7375824,
		"from_institution_name" : "University of Michigan",
		"category_id" : 1,
		"name" : "Development; Growth",
		"rank" : 14
	},
	{
		"aid" : 37552,
		"to_institution_id" : 737,
		"to_name" : "National University of Singapore",
		"to_oid" : 876,
		"startdate" : "2015-06-01",
		"to_latitude" : 1.2977694,
		"to_longitude" : 103.7807671,
		"to_rank" : 27,
		"recruiter_type" : 4,
		"description" : "Academic organization (other than econ, business, or ag econ)",
		"aid" : 37552,
		"from_oid" : 186,
		"from_institution_id" : 2,
		"latitude" : 42.2738566,
		"longitude" : -83.7375824,
		"from_institution_name" : "University of Michigan",
		"category_id" : 1,
		"name" : "Development; Growth",
		"rank" : 14
	},
	{
		"aid" : 37552,
		"to_institution_id" : 424,
		"to_name" : "World Bank",
		"to_oid" : 1244,
		"startdate" : "2016-11-01",
		"to_latitude" : 52.5009041,
		"to_longitude" : 13.4129247,
		"to_rank" : null,
		"recruiter_type" : 8,
		"description" : "Other type of organization",
		"aid" : 37552,
		"from_oid" : 186,
		"from_institution_id" : 2,
		"latitude" : 42.2738566,
		"longitude" : -83.7375824,
		"from_institution_name" : "University of Michigan",
		"category_id" : 1,
		"name" : "Development; Growth",
		"rank" : 14
	},
	{
		"aid" : 42385,
		"to_institution_id" : 225,
		"to_name" : "International Monetary Fund (IMF)",
		"to_oid" : 1170,
		"startdate" : "2019-07-01",
		"to_latitude" : 0,
		"to_longitude" : 0,
		"to_rank" : null,
		"recruiter_type" : 8,
		"description" : "Other type of organization",
		"aid" : 42385,
		"from_oid" : 186,
		"from_institution_id" : 2,
		"latitude" : 42.2738566,
		"longitude" : -83.7375824,
		"from_institution_name" : "University of Michigan",
		"category_id" : 1,
		"name" : "Development; Growth",
		"rank" : 14
	},
	{
		"aid" : 43365,
		"to_institution_id" : 439,
		"to_name" : "National University of Singapore",
		"to_oid" : 507,
		"startdate" : "2012-07-01",
		"to_latitude" : 1.2966426,
		"to_longitude" : 103.7763939,
		"to_rank" : null,
		"recruiter_type" : 1,
		"description" : "Academic organization (economics department)",
		"aid" : 43365,
		"from_oid" : 186,
		"from_institution_id" : 2,
		"latitude" : 42.2738566,
		"longitude" : -83.7375824,
		"from_institution_name" : "University of Michigan",
		"category_id" : 1,
		"name" : "Development; Growth",
		"rank" : 14
	},
	{
		"aid" : 30227,
		"to_institution_id" : 1297,
		"to_name" : "University of Utah",
		"to_oid" : 1680,
		"startdate" : "2003-01-01",
		"to_latitude" : 40.7649368,
		"to_longitude" : -111.8421021,
		"to_rank" : null,
		"recruiter_type" : 1,
		"description" : "Academic organization (economics department)",
		"aid" : 30227,
		"from_oid" : 186,
		"from_institution_id" : 2,
		"latitude" : 42.2738566,
		"longitude" : -83.7375824,
		"from_institution_name" : "University of Michigan",
		"category_id" : 2,
		"name" : "Econometrics",
		"rank" : 14
	},
	{
		"aid" : 38422,
		"to_institution_id" : 66,
		"to_name" : "University of California, Santa Barbara",
		"to_oid" : 1361,
		"startdate" : "2018-01-01",
		"to_latitude" : 34.4150086,
		"to_longitude" : -119.8461628,
		"to_rank" : null,
		"recruiter_type" : 1,
		"description" : "Academic organization (economics department)",
		"aid" : 38422,
		"from_oid" : 186,
		"from_institution_id" : 2,
		"latitude" : 42.2738566,
		"longitude" : -83.7375824,
		"from_institution_name" : "University of Michigan",
		"category_id" : 2,
		"name" : "Econometrics",
		"rank" : 14
	},
	{
		"aid" : 38422,
		"to_institution_id" : 66,
		"to_name" : "University of California, Santa Barbara",
		"to_oid" : 1361,
		"startdate" : "2019-01-01",
		"to_latitude" : 34.4150086,
		"to_longitude" : -119.8461628,
		"to_rank" : null,
		"recruiter_type" : 1,
		"description" : "Academic organization (economics department)",
		"aid" : 38422,
		"from_oid" : 186,
		"from_institution_id" : 2,
		"latitude" : 42.2738566,
		"longitude" : -83.7375824,
		"from_institution_name" : "University of Michigan",
		"category_id" : 2,
		"name" : "Econometrics",
		"rank" : 14
	},
	{
		"aid" : 42321,
		"to_institution_id" : 1,
		"to_name" : "University of California, San Diego",
		"to_oid" : 44,
		"startdate" : "2019-07-01",
		"to_latitude" : 32.882290623247336,
		"to_longitude" : -117.24039673805238,
		"to_rank" : null,
		"recruiter_type" : 1,
		"description" : "Academic organization (economics department)",
		"aid" : 42321,
		"from_oid" : 186,
		"from_institution_id" : 2,
		"latitude" : 42.2738566,
		"longitude" : -83.7375824,
		"from_institution_name" : "University of Michigan",
		"category_id" : 2,
		"name" : "Econometrics",
		"rank" : 14
	},
	{
		"aid" : 42957,
		"to_institution_id" : 124,
		"to_name" : "University of Warwick",
		"to_oid" : 143,
		"startdate" : "2019-07-01",
		"to_latitude" : 52.3810194,
		"to_longitude" : -1.5630489,
		"to_rank" : 33,
		"recruiter_type" : 1,
		"description" : "Academic organization (economics department)",
		"aid" : 42957,
		"from_oid" : 186,
		"from_institution_id" : 2,
		"latitude" : 42.2738566,
		"longitude" : -83.7375824,
		"from_institution_name" : "University of Michigan",
		"category_id" : 2,
		"name" : "Econometrics",
		"rank" : 14
	},
	{
		"aid" : 7027,
		"to_institution_id" : 749,
		"to_name" : "University of Victoria",
		"to_oid" : 888,
		"startdate" : "2015-01-01",
		"to_latitude" : 48.4634067,
		"to_longitude" : -123.3116935,
		"to_rank" : null,
		"recruiter_type" : 1,
		"description" : "Academic organization (economics department)",
		"aid" : 7027,
		"from_oid" : 186,
		"from_institution_id" : 2,
		"latitude" : 42.2738566,
		"longitude" : -83.7375824,
		"from_institution_name" : "University of Michigan",
		"category_id" : 3,
		"name" : "Economic History",
		"rank" : 14
	},
	{
		"aid" : 23229,
		"to_institution_id" : 339,
		"to_name" : "University of Chicago",
		"to_oid" : 570,
		"startdate" : "2014-01-01",
		"to_latitude" : 41.7899222,
		"to_longitude" : -87.5973383,
		"to_rank" : 2,
		"recruiter_type" : 1,
		"description" : "Academic organization (economics department)",
		"aid" : 23229,
		"from_oid" : 186,
		"from_institution_id" : 2,
		"latitude" : 42.2738566,
		"longitude" : -83.7375824,
		"from_institution_name" : "University of Michigan",
		"category_id" : 3,
		"name" : "Economic History",
		"rank" : 14
	},
	{
		"aid" : 23229,
		"to_institution_id" : 1104,
		"to_name" : "George Washington University",
		"to_oid" : 1371,
		"startdate" : "2017-01-01",
		"to_latitude" : 38.8998277,
		"to_longitude" : -77.0461775,
		"to_rank" : 84,
		"recruiter_type" : 4,
		"description" : "Academic organization (other than econ, business, or ag econ)",
		"aid" : 23229,
		"from_oid" : 186,
		"from_institution_id" : 2,
		"latitude" : 42.2738566,
		"longitude" : -83.7375824,
		"from_institution_name" : "University of Michigan",
		"category_id" : 3,
		"name" : "Economic History",
		"rank" : 14
	},
	{
		"aid" : 33143,
		"to_institution_id" : 2090,
		"to_name" : "University of North Carolina, Asheville",
		"to_oid" : 3234,
		"startdate" : "2017-01-01",
		"to_latitude" : 35.616292,
		"to_longitude" : -82.5673128,
		"to_rank" : null,
		"recruiter_type" : 1,
		"description" : "Academic organization (economics department)",
		"aid" : 33143,
		"from_oid" : 186,
		"from_institution_id" : 2,
		"latitude" : 42.2738566,
		"longitude" : -83.7375824,
		"from_institution_name" : "University of Michigan",
		"category_id" : 3,
		"name" : "Economic History",
		"rank" : 14
	},
	{
		"aid" : 33143,
		"to_institution_id" : 980,
		"to_name" : "University of Richmond",
		"to_oid" : 1198,
		"startdate" : "2018-01-01",
		"to_latitude" : 37.5784845,
		"to_longitude" : -77.5353728,
		"to_rank" : null,
		"recruiter_type" : 1,
		"description" : "Academic organization (economics department)",
		"aid" : 33143,
		"from_oid" : 186,
		"from_institution_id" : 2,
		"latitude" : 42.2738566,
		"longitude" : -83.7375824,
		"from_institution_name" : "University of Michigan",
		"category_id" : 3,
		"name" : "Economic History",
		"rank" : 14
	},
	{
		"aid" : 37523,
		"to_institution_id" : 766,
		"to_name" : "Korea Development Institute (KDI)",
		"to_oid" : 1051,
		"startdate" : "2020-07-01",
		"to_latitude" : 36.4814026,
		"to_longitude" : 127.3098388,
		"to_rank" : null,
		"recruiter_type" : 4,
		"description" : "Academic organization (other than econ, business, or ag econ)",
		"aid" : 37523,
		"from_oid" : 186,
		"from_institution_id" : 2,
		"latitude" : 42.2738566,
		"longitude" : -83.7375824,
		"from_institution_name" : "University of Michigan",
		"category_id" : 3,
		"name" : "Economic History",
		"rank" : 14
	},
	{
		"aid" : 4900,
		"to_institution_id" : 804,
		"to_name" : "Brattle Group",
		"to_oid" : 963,
		"startdate" : "2010-01-01",
		"to_latitude" : 40.7570272,
		"to_longitude" : -73.983916,
		"to_rank" : null,
		"recruiter_type" : 6,
		"description" : "Private (for profit) business or organization",
		"aid" : 4900,
		"from_oid" : 186,
		"from_institution_id" : 2,
		"latitude" : 42.2738566,
		"longitude" : -83.7375824,
		"from_institution_name" : "University of Michigan",
		"category_id" : 4,
		"name" : "Environmental; Ag. Econ.",
		"rank" : 14
	},
	{
		"aid" : 8472,
		"to_institution_id" : 249,
		"to_name" : "Georgia Institute of Technology",
		"to_oid" : 289,
		"startdate" : "2011-08-01",
		"to_latitude" : 33.7742026,
		"to_longitude" : -84.3946321,
		"to_rank" : null,
		"recruiter_type" : 1,
		"description" : "Academic organization (economics department)",
		"aid" : 8472,
		"from_oid" : 186,
		"from_institution_id" : 2,
		"latitude" : 42.2738566,
		"longitude" : -83.7375824,
		"from_institution_name" : "University of Michigan",
		"category_id" : 4,
		"name" : "Environmental; Ag. Econ.",
		"rank" : 14
	},
	{
		"aid" : 11320,
		"to_institution_id" : 724,
		"to_name" : "University of Ottawa",
		"to_oid" : 856,
		"startdate" : "2015-01-01",
		"to_latitude" : 45.4216965,
		"to_longitude" : -75.6838623,
		"to_rank" : null,
		"recruiter_type" : 1,
		"description" : "Academic organization (economics department)",
		"aid" : 11320,
		"from_oid" : 186,
		"from_institution_id" : 2,
		"latitude" : 42.2738566,
		"longitude" : -83.7375824,
		"from_institution_name" : "University of Michigan",
		"category_id" : 4,
		"name" : "Environmental; Ag. Econ.",
		"rank" : 14
	},
	{
		"aid" : 11320,
		"to_institution_id" : 1535,
		"to_name" : "Clarkson University",
		"to_oid" : 2155,
		"startdate" : "2006-01-01",
		"to_latitude" : 44.6637611,
		"to_longitude" : -74.998544,
		"to_rank" : null,
		"recruiter_type" : 2,
		"description" : "Academic organization (business school)",
		"aid" : 11320,
		"from_oid" : 186,
		"from_institution_id" : 2,
		"latitude" : 42.2738566,
		"longitude" : -83.7375824,
		"from_institution_name" : "University of Michigan",
		"category_id" : 4,
		"name" : "Environmental; Ag. Econ.",
		"rank" : 14
	},
	{
		"aid" : 11320,
		"to_institution_id" : 1535,
		"to_name" : "Clarkson University",
		"to_oid" : 2155,
		"startdate" : "2012-01-01",
		"to_latitude" : 44.6637611,
		"to_longitude" : -74.998544,
		"to_rank" : null,
		"recruiter_type" : 2,
		"description" : "Academic organization (business school)",
		"aid" : 11320,
		"from_oid" : 186,
		"from_institution_id" : 2,
		"latitude" : 42.2738566,
		"longitude" : -83.7375824,
		"from_institution_name" : "University of Michigan",
		"category_id" : 4,
		"name" : "Environmental; Ag. Econ.",
		"rank" : 14
	},
	{
		"aid" : 18367,
		"to_institution_id" : 1407,
		"to_name" : "US Department of Justice",
		"to_oid" : 1900,
		"startdate" : "2015-01-01",
		"to_latitude" : 38.893157,
		"to_longitude" : -77.0250362,
		"to_rank" : null,
		"recruiter_type" : 5,
		"description" : "Government agency or commission",
		"aid" : 18367,
		"from_oid" : 186,
		"from_institution_id" : 2,
		"latitude" : 42.2738566,
		"longitude" : -83.7375824,
		"from_institution_name" : "University of Michigan",
		"category_id" : 4,
		"name" : "Environmental; Ag. Econ.",
		"rank" : 14
	},
	{
		"aid" : 23485,
		"to_institution_id" : 350,
		"to_name" : "Harvard University",
		"to_oid" : 406,
		"startdate" : "2015-01-01",
		"to_latitude" : 42.376417,
		"to_longitude" : -71.1182727,
		"to_rank" : 1,
		"recruiter_type" : 1,
		"description" : "Academic organization (economics department)",
		"aid" : 23485,
		"from_oid" : 186,
		"from_institution_id" : 2,
		"latitude" : 42.2738566,
		"longitude" : -83.7375824,
		"from_institution_name" : "University of Michigan",
		"category_id" : 4,
		"name" : "Environmental; Ag. Econ.",
		"rank" : 14
	},
	{
		"aid" : 23485,
		"to_institution_id" : 456,
		"to_name" : "Compass Lexecon",
		"to_oid" : 527,
		"startdate" : "2017-01-01",
		"to_latitude" : 41.8772932,
		"to_longitude" : -87.6246153,
		"to_rank" : null,
		"recruiter_type" : 6,
		"description" : "Private (for profit) business or organization",
		"aid" : 23485,
		"from_oid" : 186,
		"from_institution_id" : 2,
		"latitude" : 42.2738566,
		"longitude" : -83.7375824,
		"from_institution_name" : "University of Michigan",
		"category_id" : 4,
		"name" : "Environmental; Ag. Econ.",
		"rank" : 14
	},
	{
		"aid" : 25774,
		"to_institution_id" : 323,
		"to_name" : "Resources for the Future",
		"to_oid" : 373,
		"startdate" : "2018-03-08",
		"to_latitude" : 38.9093584,
		"to_longitude" : -77.0375043,
		"to_rank" : null,
		"recruiter_type" : 7,
		"description" : "Private (non-profit) business or organization",
		"aid" : 25774,
		"from_oid" : 186,
		"from_institution_id" : 2,
		"latitude" : 42.2738566,
		"longitude" : -83.7375824,
		"from_institution_name" : "University of Michigan",
		"category_id" : 4,
		"name" : "Environmental; Ag. Econ.",
		"rank" : 14
	},
	{
		"aid" : 25774,
		"to_institution_id" : 1103,
		"to_name" : "Vrije Universiteit Amsterdam",
		"to_oid" : 1369,
		"startdate" : "2018-03-08",
		"to_latitude" : 52.3337568,
		"to_longitude" : 4.8657199,
		"to_rank" : null,
		"recruiter_type" : 1,
		"description" : "Academic organization (economics department)",
		"aid" : 25774,
		"from_oid" : 186,
		"from_institution_id" : 2,
		"latitude" : 42.2738566,
		"longitude" : -83.7375824,
		"from_institution_name" : "University of Michigan",
		"category_id" : 4,
		"name" : "Environmental; Ag. Econ.",
		"rank" : 14
	},
	{
		"aid" : 32629,
		"to_institution_id" : 1080,
		"to_name" : "Johns Hopkins University",
		"to_oid" : 1345,
		"startdate" : "2017-08-01",
		"to_latitude" : 39.2825226,
		"to_longitude" : -76.6015979,
		"to_rank" : null,
		"recruiter_type" : 1,
		"description" : "Academic organization (economics department)",
		"aid" : 32629,
		"from_oid" : 186,
		"from_institution_id" : 2,
		"latitude" : 42.2738566,
		"longitude" : -83.7375824,
		"from_institution_name" : "University of Michigan",
		"category_id" : 4,
		"name" : "Environmental; Ag. Econ.",
		"rank" : 14
	},
	{
		"aid" : 33493,
		"to_institution_id" : 1994,
		"to_name" : "Analysis Group, Inc.",
		"to_oid" : 3056,
		"startdate" : "2017-07-01",
		"to_latitude" : null,
		"to_longitude" : null,
		"to_rank" : null,
		"recruiter_type" : 6,
		"description" : "Private (for profit) business or organization",
		"aid" : 33493,
		"from_oid" : 186,
		"from_institution_id" : 2,
		"latitude" : 42.2738566,
		"longitude" : -83.7375824,
		"from_institution_name" : "University of Michigan",
		"category_id" : 4,
		"name" : "Environmental; Ag. Econ.",
		"rank" : 14
	},
	{
		"aid" : 33493,
		"to_institution_id" : 772,
		"to_name" : "Advanced Analytical Consulting Group",
		"to_oid" : 919,
		"startdate" : "2019-04-01",
		"to_latitude" : 42.3581968,
		"to_longitude" : -71.0549785,
		"to_rank" : null,
		"recruiter_type" : 6,
		"description" : "Private (for profit) business or organization",
		"aid" : 33493,
		"from_oid" : 186,
		"from_institution_id" : 2,
		"latitude" : 42.2738566,
		"longitude" : -83.7375824,
		"from_institution_name" : "University of Michigan",
		"category_id" : 4,
		"name" : "Environmental; Ag. Econ.",
		"rank" : 14
	},
	{
		"aid" : 34090,
		"to_institution_id" : 73,
		"to_name" : "University of Wisconsin, Madison",
		"to_oid" : 85,
		"startdate" : "2017-01-01",
		"to_latitude" : 43.0765006,
		"to_longitude" : -89.4052976,
		"to_rank" : 31,
		"recruiter_type" : 1,
		"description" : "Academic organization (economics department)",
		"aid" : 34090,
		"from_oid" : 186,
		"from_institution_id" : 2,
		"latitude" : 42.2738566,
		"longitude" : -83.7375824,
		"from_institution_name" : "University of Michigan",
		"category_id" : 4,
		"name" : "Environmental; Ag. Econ.",
		"rank" : 14
	},
	{
		"aid" : 34090,
		"to_institution_id" : 73,
		"to_name" : "University of Wisconsin, Madison",
		"to_oid" : 85,
		"startdate" : "2018-01-01",
		"to_latitude" : 43.0765006,
		"to_longitude" : -89.4052976,
		"to_rank" : 31,
		"recruiter_type" : 1,
		"description" : "Academic organization (economics department)",
		"aid" : 34090,
		"from_oid" : 186,
		"from_institution_id" : 2,
		"latitude" : 42.2738566,
		"longitude" : -83.7375824,
		"from_institution_name" : "University of Michigan",
		"category_id" : 4,
		"name" : "Environmental; Ag. Econ.",
		"rank" : 14
	},
	{
		"aid" : 37999,
		"to_institution_id" : 1447,
		"to_name" : "University of Alabama",
		"to_oid" : 1965,
		"startdate" : "2018-01-01",
		"to_latitude" : 33.2140233,
		"to_longitude" : -87.5391418,
		"to_rank" : null,
		"recruiter_type" : 2,
		"description" : "Academic organization (business school)",
		"aid" : 37999,
		"from_oid" : 186,
		"from_institution_id" : 2,
		"latitude" : 42.2738566,
		"longitude" : -83.7375824,
		"from_institution_name" : "University of Michigan",
		"category_id" : 4,
		"name" : "Environmental; Ag. Econ.",
		"rank" : 14
	},
	{
		"aid" : 41323,
		"to_institution_id" : 1201,
		"to_name" : "University of California, Irvine",
		"to_oid" : 1501,
		"startdate" : "2019-07-01",
		"to_latitude" : 33.6404952,
		"to_longitude" : -117.8442962,
		"to_rank" : null,
		"recruiter_type" : 1,
		"description" : "Academic organization (economics department)",
		"aid" : 41323,
		"from_oid" : 186,
		"from_institution_id" : 2,
		"latitude" : 42.2738566,
		"longitude" : -83.7375824,
		"from_institution_name" : "University of Michigan",
		"category_id" : 4,
		"name" : "Environmental; Ag. Econ.",
		"rank" : 14
	},
	{
		"aid" : 27,
		"to_institution_id" : 1547,
		"to_name" : "California Institute of Technology (Caltech)",
		"to_oid" : 2178,
		"startdate" : "2007-09-01",
		"to_latitude" : 34.1376576,
		"to_longitude" : -118.125269,
		"to_rank" : null,
		"recruiter_type" : 4,
		"description" : "Academic organization (other than econ, business, or ag econ)",
		"aid" : 27,
		"from_oid" : 186,
		"from_institution_id" : 2,
		"latitude" : 42.2738566,
		"longitude" : -83.7375824,
		"from_institution_name" : "University of Michigan",
		"category_id" : 5,
		"name" : "Experimental Economics",
		"rank" : 14
	},
	{
		"aid" : 27,
		"to_institution_id" : 675,
		"to_name" : "Hitotsubashi University",
		"to_oid" : 795,
		"startdate" : "2008-04-01",
		"to_latitude" : 35.6944035,
		"to_longitude" : 139.4454577,
		"to_rank" : null,
		"recruiter_type" : 1,
		"description" : "Academic organization (economics department)",
		"aid" : 27,
		"from_oid" : 186,
		"from_institution_id" : 2,
		"latitude" : 42.2738566,
		"longitude" : -83.7375824,
		"from_institution_name" : "University of Michigan",
		"category_id" : 5,
		"name" : "Experimental Economics",
		"rank" : 14
	},
	{
		"aid" : 27,
		"to_institution_id" : 675,
		"to_name" : "Hitotsubashi University",
		"to_oid" : 795,
		"startdate" : "2011-04-01",
		"to_latitude" : 35.6944035,
		"to_longitude" : 139.4454577,
		"to_rank" : null,
		"recruiter_type" : 1,
		"description" : "Academic organization (economics department)",
		"aid" : 27,
		"from_oid" : 186,
		"from_institution_id" : 2,
		"latitude" : 42.2738566,
		"longitude" : -83.7375824,
		"from_institution_name" : "University of Michigan",
		"category_id" : 5,
		"name" : "Experimental Economics",
		"rank" : 14
	},
	{
		"aid" : 9110,
		"to_institution_id" : 32,
		"to_name" : "University of Toronto",
		"to_oid" : 40,
		"startdate" : "2012-01-01",
		"to_latitude" : 43.6660209,
		"to_longitude" : -79.3998235,
		"to_rank" : 19,
		"recruiter_type" : 1,
		"description" : "Academic organization (economics department)",
		"aid" : 9110,
		"from_oid" : 186,
		"from_institution_id" : 2,
		"latitude" : 42.2738566,
		"longitude" : -83.7375824,
		"from_institution_name" : "University of Michigan",
		"category_id" : 5,
		"name" : "Experimental Economics",
		"rank" : 14
	},
	{
		"aid" : 9110,
		"to_institution_id" : 841,
		"to_name" : "MobLab",
		"to_oid" : 1008,
		"startdate" : "2015-01-01",
		"to_latitude" : 34.152768,
		"to_longitude" : -118.079367,
		"to_rank" : null,
		"recruiter_type" : 6,
		"description" : "Private (for profit) business or organization",
		"aid" : 9110,
		"from_oid" : 186,
		"from_institution_id" : 2,
		"latitude" : 42.2738566,
		"longitude" : -83.7375824,
		"from_institution_name" : "University of Michigan",
		"category_id" : 5,
		"name" : "Experimental Economics",
		"rank" : 14
	},
	{
		"aid" : 9110,
		"to_institution_id" : 1739,
		"to_name" : "Williams College",
		"to_oid" : 2532,
		"startdate" : "2004-01-01",
		"to_latitude" : 42.7129581,
		"to_longitude" : -73.2036396,
		"to_rank" : null,
		"recruiter_type" : 1,
		"description" : "Academic organization (economics department)",
		"aid" : 9110,
		"from_oid" : 186,
		"from_institution_id" : 2,
		"latitude" : 42.2738566,
		"longitude" : -83.7375824,
		"from_institution_name" : "University of Michigan",
		"category_id" : 5,
		"name" : "Experimental Economics",
		"rank" : 14
	},
	{
		"aid" : 11415,
		"to_institution_id" : 439,
		"to_name" : "National University of Singapore",
		"to_oid" : 507,
		"startdate" : "2012-01-01",
		"to_latitude" : 1.2966426,
		"to_longitude" : 103.7763939,
		"to_rank" : null,
		"recruiter_type" : 1,
		"description" : "Academic organization (economics department)",
		"aid" : 11415,
		"from_oid" : 186,
		"from_institution_id" : 2,
		"latitude" : 42.2738566,
		"longitude" : -83.7375824,
		"from_institution_name" : "University of Michigan",
		"category_id" : 5,
		"name" : "Experimental Economics",
		"rank" : 14
	},
	{
		"aid" : 16442,
		"to_institution_id" : 92,
		"to_name" : "University of Hong Kong",
		"to_oid" : 106,
		"startdate" : "2013-03-08",
		"to_latitude" : 22.2832267,
		"to_longitude" : 114.1390583,
		"to_rank" : null,
		"recruiter_type" : 1,
		"description" : "Academic organization (economics department)",
		"aid" : 16442,
		"from_oid" : 186,
		"from_institution_id" : 2,
		"latitude" : 42.2738566,
		"longitude" : -83.7375824,
		"from_institution_name" : "University of Michigan",
		"category_id" : 5,
		"name" : "Experimental Economics",
		"rank" : 14
	},
	{
		"aid" : 24943,
		"to_institution_id" : 1,
		"to_name" : "University of California, San Diego",
		"to_oid" : 44,
		"startdate" : "2005-01-01",
		"to_latitude" : 32.882290623247336,
		"to_longitude" : -117.24039673805238,
		"to_rank" : null,
		"recruiter_type" : 1,
		"description" : "Academic organization (economics department)",
		"aid" : 24943,
		"from_oid" : 186,
		"from_institution_id" : 2,
		"latitude" : 42.2738566,
		"longitude" : -83.7375824,
		"from_institution_name" : "University of Michigan",
		"category_id" : 5,
		"name" : "Experimental Economics",
		"rank" : 14
	},
	{
		"aid" : 24943,
		"to_institution_id" : 1546,
		"to_name" : "Charles University",
		"to_oid" : 2174,
		"startdate" : "2004-08-01",
		"to_latitude" : 50.0871106,
		"to_longitude" : 14.4234889,
		"to_rank" : null,
		"recruiter_type" : 1,
		"description" : "Academic organization (economics department)",
		"aid" : 24943,
		"from_oid" : 186,
		"from_institution_id" : 2,
		"latitude" : 42.2738566,
		"longitude" : -83.7375824,
		"from_institution_name" : "University of Michigan",
		"category_id" : 5,
		"name" : "Experimental Economics",
		"rank" : 14
	},
	{
		"aid" : 24943,
		"to_institution_id" : 1413,
		"to_name" : "RWTH Aachen University",
		"to_oid" : 1909,
		"startdate" : "2016-09-01",
		"to_latitude" : 50.7800778,
		"to_longitude" : 6.0656869,
		"to_rank" : null,
		"recruiter_type" : 1,
		"description" : "Academic organization (economics department)",
		"aid" : 24943,
		"from_oid" : 186,
		"from_institution_id" : 2,
		"latitude" : 42.2738566,
		"longitude" : -83.7375824,
		"from_institution_name" : "University of Michigan",
		"category_id" : 5,
		"name" : "Experimental Economics",
		"rank" : 14
	},
	{
		"aid" : 25888,
		"to_institution_id" : 2044,
		"to_name" : "Shanghai Jiao Tong University",
		"to_oid" : 3156,
		"startdate" : "2015-08-01",
		"to_latitude" : 31.0252201,
		"to_longitude" : 121.4337784,
		"to_rank" : null,
		"recruiter_type" : 2,
		"description" : "Academic organization (business school)",
		"aid" : 25888,
		"from_oid" : 186,
		"from_institution_id" : 2,
		"latitude" : 42.2738566,
		"longitude" : -83.7375824,
		"from_institution_name" : "University of Michigan",
		"category_id" : 5,
		"name" : "Experimental Economics",
		"rank" : 14
	},
	{
		"aid" : 41769,
		"to_institution_id" : 439,
		"to_name" : "National University of Singapore",
		"to_oid" : 507,
		"startdate" : "2012-07-01",
		"to_latitude" : 1.2966426,
		"to_longitude" : 103.7763939,
		"to_rank" : null,
		"recruiter_type" : 1,
		"description" : "Academic organization (economics department)",
		"aid" : 41769,
		"from_oid" : 186,
		"from_institution_id" : 2,
		"latitude" : 42.2738566,
		"longitude" : -83.7375824,
		"from_institution_name" : "University of Michigan",
		"category_id" : 5,
		"name" : "Experimental Economics",
		"rank" : 14
	},
	{
		"aid" : 2852,
		"to_institution_id" : 33,
		"to_name" : "Michigan State University",
		"to_oid" : 41,
		"startdate" : "2017-01-01",
		"to_latitude" : 42.7323099,
		"to_longitude" : -84.4790719,
		"to_rank" : 73,
		"recruiter_type" : 1,
		"description" : "Academic organization (economics department)",
		"aid" : 2852,
		"from_oid" : 186,
		"from_institution_id" : 2,
		"latitude" : 42.2738566,
		"longitude" : -83.7375824,
		"from_institution_name" : "University of Michigan",
		"category_id" : 6,
		"name" : "Finance",
		"rank" : 14
	},
	{
		"aid" : 3035,
		"to_institution_id" : 535,
		"to_name" : "Tsinghua University",
		"to_oid" : 623,
		"startdate" : "2010-03-08",
		"to_latitude" : 39.999567,
		"to_longitude" : 116.331991,
		"to_rank" : 86,
		"recruiter_type" : 1,
		"description" : "Academic organization (economics department)",
		"aid" : 3035,
		"from_oid" : 186,
		"from_institution_id" : 2,
		"latitude" : 42.2738566,
		"longitude" : -83.7375824,
		"from_institution_name" : "University of Michigan",
		"category_id" : 6,
		"name" : "Finance",
		"rank" : 14
	},
	{
		"aid" : 3144,
		"to_institution_id" : 1574,
		"to_name" : "University of Oregon",
		"to_oid" : 2222,
		"startdate" : "2006-01-01",
		"to_latitude" : 44.0448302,
		"to_longitude" : -123.0726055,
		"to_rank" : null,
		"recruiter_type" : 1,
		"description" : "Academic organization (economics department)",
		"aid" : 3144,
		"from_oid" : 186,
		"from_institution_id" : 2,
		"latitude" : 42.2738566,
		"longitude" : -83.7375824,
		"from_institution_name" : "University of Michigan",
		"category_id" : 6,
		"name" : "Finance",
		"rank" : 14
	},
	{
		"aid" : 2104,
		"to_institution_id" : 144,
		"to_name" : "New York University",
		"to_oid" : 167,
		"startdate" : "2014-01-01",
		"to_latitude" : 40.7290047,
		"to_longitude" : -73.9951385,
		"to_rank" : 9,
		"recruiter_type" : 1,
		"description" : "Academic organization (economics department)",
		"aid" : 2104,
		"from_oid" : 36,
		"from_institution_id" : 6,
		"latitude" : 34.068921,
		"longitude" : -118.4451811,
		"from_institution_name" : "University of California Los Angeles (UCLA)",
		"category_id" : 1,
		"name" : "Development; Growth",
		"rank" : 20
	},
	{
		"aid" : 2104,
		"to_institution_id" : 808,
		"to_name" : "Baruch College, City University of New York",
		"to_oid" : 967,
		"startdate" : "2014-08-01",
		"to_latitude" : 40.7404873,
		"to_longitude" : -73.9831567,
		"to_rank" : null,
		"recruiter_type" : 2,
		"description" : "Academic organization (business school)",
		"aid" : 2104,
		"from_oid" : 36,
		"from_institution_id" : 6,
		"latitude" : 34.068921,
		"longitude" : -118.4451811,
		"from_institution_name" : "University of California Los Angeles (UCLA)",
		"category_id" : 1,
		"name" : "Development; Growth",
		"rank" : 20
	},
	{
		"aid" : 12591,
		"to_institution_id" : 22,
		"to_name" : "Columbia University",
		"to_oid" : 29,
		"startdate" : "2016-01-01",
		"to_latitude" : 40.8077151,
		"to_longitude" : -73.9596015,
		"to_rank" : 10,
		"recruiter_type" : 1,
		"description" : "Academic organization (economics department)",
		"aid" : 12591,
		"from_oid" : 36,
		"from_institution_id" : 6,
		"latitude" : 34.068921,
		"longitude" : -118.4451811,
		"from_institution_name" : "University of California Los Angeles (UCLA)",
		"category_id" : 1,
		"name" : "Development; Growth",
		"rank" : 20
	},
	{
		"aid" : 12591,
		"to_institution_id" : 1034,
		"to_name" : "Bocconi University (Università Bocconi)",
		"to_oid" : 1262,
		"startdate" : "2012-09-01",
		"to_latitude" : 45.4485736,
		"to_longitude" : 9.189945,
		"to_rank" : null,
		"recruiter_type" : 4,
		"description" : "Academic organization (other than econ, business, or ag econ)",
		"aid" : 12591,
		"from_oid" : 36,
		"from_institution_id" : 6,
		"latitude" : 34.068921,
		"longitude" : -118.4451811,
		"from_institution_name" : "University of California Los Angeles (UCLA)",
		"category_id" : 1,
		"name" : "Development; Growth",
		"rank" : 20
	},
	{
		"aid" : 12731,
		"to_institution_id" : 17,
		"to_name" : "Duke University",
		"to_oid" : 24,
		"startdate" : "2014-07-01",
		"to_latitude" : 36.0014258,
		"to_longitude" : -78.9382286,
		"to_rank" : 15,
		"recruiter_type" : 1,
		"description" : "Academic organization (economics department)",
		"aid" : 12731,
		"from_oid" : 36,
		"from_institution_id" : 6,
		"latitude" : 34.068921,
		"longitude" : -118.4451811,
		"from_institution_name" : "University of California Los Angeles (UCLA)",
		"category_id" : 1,
		"name" : "Development; Growth",
		"rank" : 20
	},
	{
		"aid" : 12731,
		"to_institution_id" : 1044,
		"to_name" : "University of Chicago",
		"to_oid" : 1275,
		"startdate" : "2004-08-01",
		"to_latitude" : 41.7854555,
		"to_longitude" : -87.596997,
		"to_rank" : null,
		"recruiter_type" : 4,
		"description" : "Academic organization (other than econ, business, or ag econ)",
		"aid" : 12731,
		"from_oid" : 36,
		"from_institution_id" : 6,
		"latitude" : 34.068921,
		"longitude" : -118.4451811,
		"from_institution_name" : "University of California Los Angeles (UCLA)",
		"category_id" : 1,
		"name" : "Development; Growth",
		"rank" : 20
	},
	{
		"aid" : 12731,
		"to_institution_id" : 1159,
		"to_name" : "University of São Paulo (Universidade de Sao Paulo)",
		"to_oid" : 1445,
		"startdate" : "2007-08-01",
		"to_latitude" : -23.5613991,
		"to_longitude" : -46.7307891,
		"to_rank" : null,
		"recruiter_type" : 1,
		"description" : "Academic organization (economics department)",
		"aid" : 12731,
		"from_oid" : 36,
		"from_institution_id" : 6,
		"latitude" : 34.068921,
		"longitude" : -118.4451811,
		"from_institution_name" : "University of California Los Angeles (UCLA)",
		"category_id" : 1,
		"name" : "Development; Growth",
		"rank" : 20
	},
	{
		"aid" : 12731,
		"to_institution_id" : 1159,
		"to_name" : "University of São Paulo (Universidade de Sao Paulo)",
		"to_oid" : 1445,
		"startdate" : "2010-08-01",
		"to_latitude" : -23.5613991,
		"to_longitude" : -46.7307891,
		"to_rank" : null,
		"recruiter_type" : 1,
		"description" : "Academic organization (economics department)",
		"aid" : 12731,
		"from_oid" : 36,
		"from_institution_id" : 6,
		"latitude" : 34.068921,
		"longitude" : -118.4451811,
		"from_institution_name" : "University of California Los Angeles (UCLA)",
		"category_id" : 1,
		"name" : "Development; Growth",
		"rank" : 20
	},
	{
		"aid" : 18272,
		"to_institution_id" : 1784,
		"to_name" : "Central Bank of Chile",
		"to_oid" : 2617,
		"startdate" : "2003-01-01",
		"to_latitude" : -33.441408535212524,
		"to_longitude" : -70.65325856208803,
		"to_rank" : null,
		"recruiter_type" : 5,
		"description" : "Government agency or commission",
		"aid" : 18272,
		"from_oid" : 36,
		"from_institution_id" : 6,
		"latitude" : 34.068921,
		"longitude" : -118.4451811,
		"from_institution_name" : "University of California Los Angeles (UCLA)",
		"category_id" : 1,
		"name" : "Development; Growth",
		"rank" : 20
	},
	{
		"aid" : 18272,
		"to_institution_id" : 901,
		"to_name" : "Pontificia Universidad Católica de Chile (Catholic University of Chile)",
		"to_oid" : 749,
		"startdate" : "2009-01-01",
		"to_latitude" : -33.4411279,
		"to_longitude" : -70.6407933,
		"to_rank" : null,
		"recruiter_type" : 1,
		"description" : "Academic organization (economics department)",
		"aid" : 18272,
		"from_oid" : 36,
		"from_institution_id" : 6,
		"latitude" : 34.068921,
		"longitude" : -118.4451811,
		"from_institution_name" : "University of California Los Angeles (UCLA)",
		"category_id" : 1,
		"name" : "Development; Growth",
		"rank" : 20
	},
	{
		"aid" : 19599,
		"to_institution_id" : 496,
		"to_name" : "Cornerstone Research",
		"to_oid" : 574,
		"startdate" : "2014-08-01",
		"to_latitude" : 41.881618,
		"to_longitude" : -87.633332,
		"to_rank" : null,
		"recruiter_type" : 6,
		"description" : "Private (for profit) business or organization",
		"aid" : 19599,
		"from_oid" : 36,
		"from_institution_id" : 6,
		"latitude" : 34.068921,
		"longitude" : -118.4451811,
		"from_institution_name" : "University of California Los Angeles (UCLA)",
		"category_id" : 1,
		"name" : "Development; Growth",
		"rank" : 20
	},
	{
		"aid" : 21694,
		"to_institution_id" : 6,
		"to_name" : "University of California Los Angeles (UCLA)",
		"to_oid" : 1352,
		"startdate" : "2014-12-01",
		"to_latitude" : 34.0744024,
		"to_longitude" : -118.4390865,
		"to_rank" : 20,
		"recruiter_type" : 4,
		"description" : "Academic organization (other than econ, business, or ag econ)",
		"aid" : 21694,
		"from_oid" : 36,
		"from_institution_id" : 6,
		"latitude" : 34.068921,
		"longitude" : -118.4451811,
		"from_institution_name" : "University of California Los Angeles (UCLA)",
		"category_id" : 1,
		"name" : "Development; Growth",
		"rank" : 20
	},
	{
		"aid" : 21694,
		"to_institution_id" : 312,
		"to_name" : "Boston College",
		"to_oid" : 362,
		"startdate" : "2015-09-01",
		"to_latitude" : 42.3362748,
		"to_longitude" : -71.168524,
		"to_rank" : 69,
		"recruiter_type" : 1,
		"description" : "Academic organization (economics department)",
		"aid" : 21694,
		"from_oid" : 36,
		"from_institution_id" : 6,
		"latitude" : 34.068921,
		"longitude" : -118.4451811,
		"from_institution_name" : "University of California Los Angeles (UCLA)",
		"category_id" : 1,
		"name" : "Development; Growth",
		"rank" : 20
	},
	{
		"aid" : 21694,
		"to_institution_id" : 1483,
		"to_name" : "University of California, Merced",
		"to_oid" : 2044,
		"startdate" : "2014-07-01",
		"to_latitude" : 37.3641651,
		"to_longitude" : -120.4254615,
		"to_rank" : null,
		"recruiter_type" : 1,
		"description" : "Academic organization (economics department)",
		"aid" : 21694,
		"from_oid" : 36,
		"from_institution_id" : 6,
		"latitude" : 34.068921,
		"longitude" : -118.4451811,
		"from_institution_name" : "University of California Los Angeles (UCLA)",
		"category_id" : 1,
		"name" : "Development; Growth",
		"rank" : 20
	},
	{
		"aid" : 8134,
		"to_institution_id" : 18,
		"to_name" : "Northwestern University",
		"to_oid" : 25,
		"startdate" : "2012-01-01",
		"to_latitude" : 42.0571538,
		"to_longitude" : -87.6716364,
		"to_rank" : 12,
		"recruiter_type" : 1,
		"description" : "Academic organization (economics department)",
		"aid" : 8134,
		"from_oid" : 36,
		"from_institution_id" : 6,
		"latitude" : 34.068921,
		"longitude" : -118.4451811,
		"from_institution_name" : "University of California Los Angeles (UCLA)",
		"category_id" : 2,
		"name" : "Econometrics",
		"rank" : 20
	},
	{
		"aid" : 8134,
		"to_institution_id" : 311,
		"to_name" : "Massachusetts Institute of Technology",
		"to_oid" : 361,
		"startdate" : "2016-04-01",
		"to_latitude" : 42.3606249,
		"to_longitude" : -71.0835567,
		"to_rank" : 7,
		"recruiter_type" : 1,
		"description" : "Academic organization (economics department)",
		"aid" : 8134,
		"from_oid" : 36,
		"from_institution_id" : 6,
		"latitude" : 34.068921,
		"longitude" : -118.4451811,
		"from_institution_name" : "University of California Los Angeles (UCLA)",
		"category_id" : 2,
		"name" : "Econometrics",
		"rank" : 20
	},
	{
		"aid" : 8134,
		"to_institution_id" : 1309,
		"to_name" : "National Bureau of Economic Research",
		"to_oid" : 1704,
		"startdate" : "2015-01-01",
		"to_latitude" : 42.3697938,
		"to_longitude" : -71.1129944,
		"to_rank" : null,
		"recruiter_type" : 7,
		"description" : "Private (non-profit) business or organization",
		"aid" : 8134,
		"from_oid" : 36,
		"from_institution_id" : 6,
		"latitude" : 34.068921,
		"longitude" : -118.4451811,
		"from_institution_name" : "University of California Los Angeles (UCLA)",
		"category_id" : 2,
		"name" : "Econometrics",
		"rank" : 20
	},
	{
		"aid" : 12568,
		"to_institution_id" : 866,
		"to_name" : "Hebrew University of Jerusalem",
		"to_oid" : 1042,
		"startdate" : "2012-03-08",
		"to_latitude" : 31.7942804,
		"to_longitude" : 35.2429186,
		"to_rank" : 79,
		"recruiter_type" : 1,
		"description" : "Academic organization (economics department)",
		"aid" : 12568,
		"from_oid" : 36,
		"from_institution_id" : 6,
		"latitude" : 34.068921,
		"longitude" : -118.4451811,
		"from_institution_name" : "University of California Los Angeles (UCLA)",
		"category_id" : 2,
		"name" : "Econometrics",
		"rank" : 20
	},
	{
		"aid" : 21272,
		"to_institution_id" : 33,
		"to_name" : "Michigan State University",
		"to_oid" : 41,
		"startdate" : "2014-07-01",
		"to_latitude" : 42.7323099,
		"to_longitude" : -84.4790719,
		"to_rank" : 73,
		"recruiter_type" : 1,
		"description" : "Academic organization (economics department)",
		"aid" : 21272,
		"from_oid" : 36,
		"from_institution_id" : 6,
		"latitude" : 34.068921,
		"longitude" : -118.4451811,
		"from_institution_name" : "University of California Los Angeles (UCLA)",
		"category_id" : 2,
		"name" : "Econometrics",
		"rank" : 20
	},
	{
		"aid" : 21272,
		"to_institution_id" : 1089,
		"to_name" : "Singapore Management University",
		"to_oid" : 1347,
		"startdate" : "2006-01-01",
		"to_latitude" : 1.297537,
		"to_longitude" : 103.8489704,
		"to_rank" : 64,
		"recruiter_type" : 1,
		"description" : "Academic organization (economics department)",
		"aid" : 21272,
		"from_oid" : 36,
		"from_institution_id" : 6,
		"latitude" : 34.068921,
		"longitude" : -118.4451811,
		"from_institution_name" : "University of California Los Angeles (UCLA)",
		"category_id" : 2,
		"name" : "Econometrics",
		"rank" : 20
	},
	{
		"aid" : 21272,
		"to_institution_id" : 430,
		"to_name" : "Sungkyunkwan University (SKK)",
		"to_oid" : 497,
		"startdate" : "2014-04-01",
		"to_latitude" : 37.588227,
		"to_longitude" : 126.993606,
		"to_rank" : null,
		"recruiter_type" : 1,
		"description" : "Academic organization (economics department)",
		"aid" : 21272,
		"from_oid" : 36,
		"from_institution_id" : 6,
		"latitude" : 34.068921,
		"longitude" : -118.4451811,
		"from_institution_name" : "University of California Los Angeles (UCLA)",
		"category_id" : 2,
		"name" : "Econometrics",
		"rank" : 20
	},
	{
		"aid" : 21272,
		"to_institution_id" : 562,
		"to_name" : "University of Minnesota, Twin Cities",
		"to_oid" : 1090,
		"startdate" : "2007-01-01",
		"to_latitude" : 44.9835527,
		"to_longitude" : -93.1843936,
		"to_rank" : null,
		"recruiter_type" : 1,
		"description" : "Academic organization (economics department)",
		"aid" : 21272,
		"from_oid" : 36,
		"from_institution_id" : 6,
		"latitude" : 34.068921,
		"longitude" : -118.4451811,
		"from_institution_name" : "University of California Los Angeles (UCLA)",
		"category_id" : 2,
		"name" : "Econometrics",
		"rank" : 20
	},
	{
		"aid" : 28095,
		"to_institution_id" : 321,
		"to_name" : "Korea Information Society Development Institute",
		"to_oid" : 371,
		"startdate" : "2016-07-01",
		"to_latitude" : 36.9029581,
		"to_longitude" : 127.5423723,
		"to_rank" : null,
		"recruiter_type" : 8,
		"description" : "Other type of organization",
		"aid" : 28095,
		"from_oid" : 36,
		"from_institution_id" : 6,
		"latitude" : 34.068921,
		"longitude" : -118.4451811,
		"from_institution_name" : "University of California Los Angeles (UCLA)",
		"category_id" : 2,
		"name" : "Econometrics",
		"rank" : 20
	},
	{
		"aid" : 32498,
		"to_institution_id" : 921,
		"to_name" : "University of California, Riverside",
		"to_oid" : 1112,
		"startdate" : "2017-07-01",
		"to_latitude" : 33.9745501,
		"to_longitude" : -117.330563,
		"to_rank" : null,
		"recruiter_type" : 4,
		"description" : "Academic organization (other than econ, business, or ag econ)",
		"aid" : 32498,
		"from_oid" : 36,
		"from_institution_id" : 6,
		"latitude" : 34.068921,
		"longitude" : -118.4451811,
		"from_institution_name" : "University of California Los Angeles (UCLA)",
		"category_id" : 2,
		"name" : "Econometrics",
		"rank" : 20
	},
	{
		"aid" : 38786,
		"to_institution_id" : 761,
		"to_name" : "University of Copenhagen (Københavns Universitet)",
		"to_oid" : 902,
		"startdate" : "2018-01-01",
		"to_latitude" : 55.689021352991666,
		"to_longitude" : 12.57089138031006,
		"to_rank" : 53,
		"recruiter_type" : 1,
		"description" : "Academic organization (economics department)",
		"aid" : 38786,
		"from_oid" : 36,
		"from_institution_id" : 6,
		"latitude" : 34.068921,
		"longitude" : -118.4451811,
		"from_institution_name" : "University of California Los Angeles (UCLA)",
		"category_id" : 2,
		"name" : "Econometrics",
		"rank" : 20
	},
	{
		"aid" : 41894,
		"to_institution_id" : 446,
		"to_name" : "Bank of Canada",
		"to_oid" : 515,
		"startdate" : "2019-07-01",
		"to_latitude" : 45.420962,
		"to_longitude" : -75.702902,
		"to_rank" : null,
		"recruiter_type" : 5,
		"description" : "Government agency or commission",
		"aid" : 41894,
		"from_oid" : 36,
		"from_institution_id" : 6,
		"latitude" : 34.068921,
		"longitude" : -118.4451811,
		"from_institution_name" : "University of California Los Angeles (UCLA)",
		"category_id" : 2,
		"name" : "Econometrics",
		"rank" : 20
	},
	{
		"aid" : 42239,
		"to_institution_id" : 286,
		"to_name" : "Simon Fraser University",
		"to_oid" : 332,
		"startdate" : "2019-07-01",
		"to_latitude" : 49.2800145,
		"to_longitude" : -122.9200592,
		"to_rank" : 88,
		"recruiter_type" : 1,
		"description" : "Academic organization (economics department)",
		"aid" : 42239,
		"from_oid" : 36,
		"from_institution_id" : 6,
		"latitude" : 34.068921,
		"longitude" : -118.4451811,
		"from_institution_name" : "University of California Los Angeles (UCLA)",
		"category_id" : 2,
		"name" : "Econometrics",
		"rank" : 20
	},
	{
		"aid" : 5107,
		"to_institution_id" : 439,
		"to_name" : "National University of Singapore",
		"to_oid" : 507,
		"startdate" : "2011-07-01",
		"to_latitude" : 1.2966426,
		"to_longitude" : 103.7763939,
		"to_rank" : null,
		"recruiter_type" : 1,
		"description" : "Academic organization (economics department)",
		"aid" : 5107,
		"from_oid" : 36,
		"from_institution_id" : 6,
		"latitude" : 34.068921,
		"longitude" : -118.4451811,
		"from_institution_name" : "University of California Los Angeles (UCLA)",
		"category_id" : 3,
		"name" : "Economic History",
		"rank" : 20
	},
	{
		"aid" : 39166,
		"to_institution_id" : 72,
		"to_name" : "Washington University in St. Louis",
		"to_oid" : 84,
		"startdate" : "2003-01-01",
		"to_latitude" : 38.648238,
		"to_longitude" : -90.3048746,
		"to_rank" : 84,
		"recruiter_type" : 1,
		"description" : "Academic organization (economics department)",
		"aid" : 39166,
		"from_oid" : 36,
		"from_institution_id" : 6,
		"latitude" : 34.068921,
		"longitude" : -118.4451811,
		"from_institution_name" : "University of California Los Angeles (UCLA)",
		"category_id" : 3,
		"name" : "Economic History",
		"rank" : 20
	},
	{
		"aid" : 39166,
		"to_institution_id" : 1309,
		"to_name" : "National Bureau of Economic Research",
		"to_oid" : 1704,
		"startdate" : "2003-01-01",
		"to_latitude" : 42.3697938,
		"to_longitude" : -71.1129944,
		"to_rank" : null,
		"recruiter_type" : 7,
		"description" : "Private (non-profit) business or organization",
		"aid" : 39166,
		"from_oid" : 36,
		"from_institution_id" : 6,
		"latitude" : 34.068921,
		"longitude" : -118.4451811,
		"from_institution_name" : "University of California Los Angeles (UCLA)",
		"category_id" : 3,
		"name" : "Economic History",
		"rank" : 20
	},
	{
		"aid" : 7456,
		"to_institution_id" : 2139,
		"to_name" : "Swedish University of Agricultural Sciences (Sveriges lantbruksuniversitet)",
		"to_oid" : 3356,
		"startdate" : "2011-01-01",
		"to_latitude" : 59.814947,
		"to_longitude" : 17.6628688,
		"to_rank" : null,
		"recruiter_type" : 1,
		"description" : "Academic organization (economics department)",
		"aid" : 7456,
		"from_oid" : 36,
		"from_institution_id" : 6,
		"latitude" : 34.068921,
		"longitude" : -118.4451811,
		"from_institution_name" : "University of California Los Angeles (UCLA)",
		"category_id" : 4,
		"name" : "Environmental; Ag. Econ.",
		"rank" : 20
	},
	{
		"aid" : 8112,
		"to_institution_id" : 144,
		"to_name" : "New York University",
		"to_oid" : 167,
		"startdate" : "2013-01-01",
		"to_latitude" : 40.7290047,
		"to_longitude" : -73.9951385,
		"to_rank" : 9,
		"recruiter_type" : 1,
		"description" : "Academic organization (economics department)",
		"aid" : 8112,
		"from_oid" : 36,
		"from_institution_id" : 6,
		"latitude" : 34.068921,
		"longitude" : -118.4451811,
		"from_institution_name" : "University of California Los Angeles (UCLA)",
		"category_id" : 4,
		"name" : "Environmental; Ag. Econ.",
		"rank" : 20
	},
	{
		"aid" : 8112,
		"to_institution_id" : 1201,
		"to_name" : "University of California, Irvine",
		"to_oid" : 1501,
		"startdate" : "2007-01-01",
		"to_latitude" : 33.6404952,
		"to_longitude" : -117.8442962,
		"to_rank" : null,
		"recruiter_type" : 1,
		"description" : "Academic organization (economics department)",
		"aid" : 8112,
		"from_oid" : 36,
		"from_institution_id" : 6,
		"latitude" : 34.068921,
		"longitude" : -118.4451811,
		"from_institution_name" : "University of California Los Angeles (UCLA)",
		"category_id" : 4,
		"name" : "Environmental; Ag. Econ.",
		"rank" : 20
	},
	{
		"aid" : 8112,
		"to_institution_id" : 92,
		"to_name" : "University of Hong Kong",
		"to_oid" : 106,
		"startdate" : "2012-01-01",
		"to_latitude" : 22.2832267,
		"to_longitude" : 114.1390583,
		"to_rank" : null,
		"recruiter_type" : 1,
		"description" : "Academic organization (economics department)",
		"aid" : 8112,
		"from_oid" : 36,
		"from_institution_id" : 6,
		"latitude" : 34.068921,
		"longitude" : -118.4451811,
		"from_institution_name" : "University of California Los Angeles (UCLA)",
		"category_id" : 4,
		"name" : "Environmental; Ag. Econ.",
		"rank" : 20
	},
	{
		"aid" : 9764,
		"to_institution_id" : 277,
		"to_name" : "European University Institute",
		"to_oid" : 323,
		"startdate" : "2012-01-01",
		"to_latitude" : 43.803079,
		"to_longitude" : 11.282959,
		"to_rank" : null,
		"recruiter_type" : 1,
		"description" : "Academic organization (economics department)",
		"aid" : 9764,
		"from_oid" : 36,
		"from_institution_id" : 6,
		"latitude" : 34.068921,
		"longitude" : -118.4451811,
		"from_institution_name" : "University of California Los Angeles (UCLA)",
		"category_id" : 4,
		"name" : "Environmental; Ag. Econ.",
		"rank" : 20
	},
	{
		"aid" : 13362,
		"to_institution_id" : 804,
		"to_name" : "Brattle Group",
		"to_oid" : 963,
		"startdate" : "2012-06-01",
		"to_latitude" : 40.7570272,
		"to_longitude" : -73.983916,
		"to_rank" : null,
		"recruiter_type" : 6,
		"description" : "Private (for profit) business or organization",
		"aid" : 13362,
		"from_oid" : 36,
		"from_institution_id" : 6,
		"latitude" : 34.068921,
		"longitude" : -118.4451811,
		"from_institution_name" : "University of California Los Angeles (UCLA)",
		"category_id" : 4,
		"name" : "Environmental; Ag. Econ.",
		"rank" : 20
	},
	{
		"aid" : 1441,
		"to_institution_id" : 95,
		"to_name" : "Monash University",
		"to_oid" : 109,
		"startdate" : "2013-04-01",
		"to_latitude" : -37.9105238,
		"to_longitude" : 145.1362182,
		"to_rank" : 41,
		"recruiter_type" : 1,
		"description" : "Academic organization (economics department)",
		"aid" : 1441,
		"from_oid" : 36,
		"from_institution_id" : 6,
		"latitude" : 34.068921,
		"longitude" : -118.4451811,
		"from_institution_name" : "University of California Los Angeles (UCLA)",
		"category_id" : 5,
		"name" : "Experimental Economics",
		"rank" : 20
	},
	{
		"aid" : 1441,
		"to_institution_id" : 158,
		"to_name" : "Carnegie Mellon University",
		"to_oid" : 185,
		"startdate" : "2007-09-01",
		"to_latitude" : 40.4441758,
		"to_longitude" : -79.9455565,
		"to_rank" : 51,
		"recruiter_type" : 4,
		"description" : "Academic organization (other than econ, business, or ag econ)",
		"aid" : 1441,
		"from_oid" : 36,
		"from_institution_id" : 6,
		"latitude" : 34.068921,
		"longitude" : -118.4451811,
		"from_institution_name" : "University of California Los Angeles (UCLA)",
		"category_id" : 5,
		"name" : "Experimental Economics",
		"rank" : 20
	},
	{
		"aid" : 1441,
		"to_institution_id" : 1201,
		"to_name" : "University of California, Irvine",
		"to_oid" : 1501,
		"startdate" : "2014-01-01",
		"to_latitude" : 33.6404952,
		"to_longitude" : -117.8442962,
		"to_rank" : null,
		"recruiter_type" : 1,
		"description" : "Academic organization (economics department)",
		"aid" : 1441,
		"from_oid" : 36,
		"from_institution_id" : 6,
		"latitude" : 34.068921,
		"longitude" : -118.4451811,
		"from_institution_name" : "University of California Los Angeles (UCLA)",
		"category_id" : 5,
		"name" : "Experimental Economics",
		"rank" : 20
	},
	{
		"aid" : 4198,
		"to_institution_id" : 424,
		"to_name" : "World Bank",
		"to_oid" : 1244,
		"startdate" : "2010-09-01",
		"to_latitude" : 52.5009041,
		"to_longitude" : 13.4129247,
		"to_rank" : null,
		"recruiter_type" : 8,
		"description" : "Other type of organization",
		"aid" : 4198,
		"from_oid" : 20,
		"from_institution_id" : 13,
		"latitude" : 38.9847953,
		"longitude" : -76.9440122,
		"from_institution_name" : "University of Maryland",
		"category_id" : 1,
		"name" : "Development; Growth",
		"rank" : 24
	},
	{
		"aid" : 4730,
		"to_institution_id" : 1974,
		"to_name" : "Indiana University East",
		"to_oid" : 2400,
		"startdate" : "2004-01-01",
		"to_latitude" : 39.8683383,
		"to_longitude" : -84.8808831,
		"to_rank" : null,
		"recruiter_type" : 2,
		"description" : "Academic organization (business school)",
		"aid" : 4730,
		"from_oid" : 20,
		"from_institution_id" : 13,
		"latitude" : 38.9847953,
		"longitude" : -76.9440122,
		"from_institution_name" : "University of Maryland",
		"category_id" : 1,
		"name" : "Development; Growth",
		"rank" : 24
	},
	{
		"aid" : 7270,
		"to_institution_id" : 322,
		"to_name" : "Inter-American Development Bank",
		"to_oid" : 372,
		"startdate" : "2020-07-01",
		"to_latitude" : 38.8994662,
		"to_longitude" : -77.0301901,
		"to_rank" : null,
		"recruiter_type" : 7,
		"description" : "Private (non-profit) business or organization",
		"aid" : 7270,
		"from_oid" : 20,
		"from_institution_id" : 13,
		"latitude" : 38.9847953,
		"longitude" : -76.9440122,
		"from_institution_name" : "University of Maryland",
		"category_id" : 1,
		"name" : "Development; Growth",
		"rank" : 24
	},
	{
		"aid" : 7401,
		"to_institution_id" : 308,
		"to_name" : "University of Arkansas",
		"to_oid" : 358,
		"startdate" : "2005-01-01",
		"to_latitude" : 36.0652599,
		"to_longitude" : -94.1743087,
		"to_rank" : null,
		"recruiter_type" : 1,
		"description" : "Academic organization (economics department)",
		"aid" : 7401,
		"from_oid" : 20,
		"from_institution_id" : 13,
		"latitude" : 38.9847953,
		"longitude" : -76.9440122,
		"from_institution_name" : "University of Maryland",
		"category_id" : 1,
		"name" : "Development; Growth",
		"rank" : 24
	},
	{
		"aid" : 7401,
		"to_institution_id" : 308,
		"to_name" : "University of Arkansas",
		"to_oid" : 358,
		"startdate" : "2014-01-01",
		"to_latitude" : 36.0652599,
		"to_longitude" : -94.1743087,
		"to_rank" : null,
		"recruiter_type" : 1,
		"description" : "Academic organization (economics department)",
		"aid" : 7401,
		"from_oid" : 20,
		"from_institution_id" : 13,
		"latitude" : 38.9847953,
		"longitude" : -76.9440122,
		"from_institution_name" : "University of Maryland",
		"category_id" : 1,
		"name" : "Development; Growth",
		"rank" : 24
	},
	{
		"aid" : 8016,
		"to_institution_id" : 22,
		"to_name" : "Columbia University",
		"to_oid" : 29,
		"startdate" : "2013-01-01",
		"to_latitude" : 40.8077151,
		"to_longitude" : -73.9596015,
		"to_rank" : 10,
		"recruiter_type" : 1,
		"description" : "Academic organization (economics department)",
		"aid" : 8016,
		"from_oid" : 20,
		"from_institution_id" : 13,
		"latitude" : 38.9847953,
		"longitude" : -76.9440122,
		"from_institution_name" : "University of Maryland",
		"category_id" : 1,
		"name" : "Development; Growth",
		"rank" : 24
	},
	{
		"aid" : 8016,
		"to_institution_id" : 1607,
		"to_name" : "United States Naval Academy",
		"to_oid" : 2287,
		"startdate" : "2011-01-01",
		"to_latitude" : 38.9820658,
		"to_longitude" : -76.4839405,
		"to_rank" : null,
		"recruiter_type" : 1,
		"description" : "Academic organization (economics department)",
		"aid" : 8016,
		"from_oid" : 20,
		"from_institution_id" : 13,
		"latitude" : 38.9847953,
		"longitude" : -76.9440122,
		"from_institution_name" : "University of Maryland",
		"category_id" : 1,
		"name" : "Development; Growth",
		"rank" : 24
	},
	{
		"aid" : 8016,
		"to_institution_id" : 424,
		"to_name" : "World Bank",
		"to_oid" : 1244,
		"startdate" : "2013-01-01",
		"to_latitude" : 52.5009041,
		"to_longitude" : 13.4129247,
		"to_rank" : null,
		"recruiter_type" : 8,
		"description" : "Other type of organization",
		"aid" : 8016,
		"from_oid" : 20,
		"from_institution_id" : 13,
		"latitude" : 38.9847953,
		"longitude" : -76.9440122,
		"from_institution_name" : "University of Maryland",
		"category_id" : 1,
		"name" : "Development; Growth",
		"rank" : 24
	},
	{
		"aid" : 8016,
		"to_institution_id" : 1698,
		"to_name" : "California Polytechnic State University, San Luis Obispo",
		"to_oid" : 2453,
		"startdate" : "2017-01-01",
		"to_latitude" : 35.3050053,
		"to_longitude" : -120.6624942,
		"to_rank" : null,
		"recruiter_type" : 3,
		"description" : "Academic organization (agricultural/resource economics department)",
		"aid" : 8016,
		"from_oid" : 20,
		"from_institution_id" : 13,
		"latitude" : 38.9847953,
		"longitude" : -76.9440122,
		"from_institution_name" : "University of Maryland",
		"category_id" : 1,
		"name" : "Development; Growth",
		"rank" : 24
	},
	{
		"aid" : 8806,
		"to_institution_id" : 424,
		"to_name" : "World Bank",
		"to_oid" : 1244,
		"startdate" : "2010-01-01",
		"to_latitude" : 52.5009041,
		"to_longitude" : 13.4129247,
		"to_rank" : null,
		"recruiter_type" : 8,
		"description" : "Other type of organization",
		"aid" : 8806,
		"from_oid" : 20,
		"from_institution_id" : 13,
		"latitude" : 38.9847953,
		"longitude" : -76.9440122,
		"from_institution_name" : "University of Maryland",
		"category_id" : 1,
		"name" : "Development; Growth",
		"rank" : 24
	},
	{
		"aid" : 12452,
		"to_institution_id" : 424,
		"to_name" : "World Bank",
		"to_oid" : 1244,
		"startdate" : "2012-09-01",
		"to_latitude" : 52.5009041,
		"to_longitude" : 13.4129247,
		"to_rank" : null,
		"recruiter_type" : 8,
		"description" : "Other type of organization",
		"aid" : 12452,
		"from_oid" : 20,
		"from_institution_id" : 13,
		"latitude" : 38.9847953,
		"longitude" : -76.9440122,
		"from_institution_name" : "University of Maryland",
		"category_id" : 1,
		"name" : "Development; Growth",
		"rank" : 24
	},
	{
		"aid" : 13010,
		"to_institution_id" : 339,
		"to_name" : "University of Chicago",
		"to_oid" : 394,
		"startdate" : "2011-09-01",
		"to_latitude" : 41.7899222,
		"to_longitude" : -87.5973383,
		"to_rank" : 2,
		"recruiter_type" : 1,
		"description" : "Academic organization (economics department)",
		"aid" : 13010,
		"from_oid" : 20,
		"from_institution_id" : 13,
		"latitude" : 38.9847953,
		"longitude" : -76.9440122,
		"from_institution_name" : "University of Maryland",
		"category_id" : 1,
		"name" : "Development; Growth",
		"rank" : 24
	},
	{
		"aid" : 13010,
		"to_institution_id" : 339,
		"to_name" : "University of Chicago",
		"to_oid" : 394,
		"startdate" : "2017-01-01",
		"to_latitude" : 41.7899222,
		"to_longitude" : -87.5973383,
		"to_rank" : 2,
		"recruiter_type" : 1,
		"description" : "Academic organization (economics department)",
		"aid" : 13010,
		"from_oid" : 20,
		"from_institution_id" : 13,
		"latitude" : 38.9847953,
		"longitude" : -76.9440122,
		"from_institution_name" : "University of Maryland",
		"category_id" : 1,
		"name" : "Development; Growth",
		"rank" : 24
	},
	{
		"aid" : 13010,
		"to_institution_id" : 1592,
		"to_name" : "Claremont McKenna College",
		"to_oid" : 2254,
		"startdate" : "2013-01-01",
		"to_latitude" : 34.1017767,
		"to_longitude" : -117.7079219,
		"to_rank" : null,
		"recruiter_type" : 1,
		"description" : "Academic organization (economics department)",
		"aid" : 13010,
		"from_oid" : 20,
		"from_institution_id" : 13,
		"latitude" : 38.9847953,
		"longitude" : -76.9440122,
		"from_institution_name" : "University of Maryland",
		"category_id" : 1,
		"name" : "Development; Growth",
		"rank" : 24
	},
	{
		"aid" : 14692,
		"to_institution_id" : 424,
		"to_name" : "World Bank",
		"to_oid" : 1244,
		"startdate" : "2013-07-01",
		"to_latitude" : 52.5009041,
		"to_longitude" : 13.4129247,
		"to_rank" : null,
		"recruiter_type" : 8,
		"description" : "Other type of organization",
		"aid" : 14692,
		"from_oid" : 20,
		"from_institution_id" : 13,
		"latitude" : 38.9847953,
		"longitude" : -76.9440122,
		"from_institution_name" : "University of Maryland",
		"category_id" : 1,
		"name" : "Development; Growth",
		"rank" : 24
	},
	{
		"aid" : 16002,
		"to_institution_id" : 2457,
		"to_name" : "Old Dominion University",
		"to_oid" : 3988,
		"startdate" : "2010-03-08",
		"to_latitude" : 36.8853217,
		"to_longitude" : -76.3058786,
		"to_rank" : null,
		"recruiter_type" : 4,
		"description" : "Academic organization (other than econ, business, or ag econ)",
		"aid" : 16002,
		"from_oid" : 20,
		"from_institution_id" : 13,
		"latitude" : 38.9847953,
		"longitude" : -76.9440122,
		"from_institution_name" : "University of Maryland",
		"category_id" : 1,
		"name" : "Development; Growth",
		"rank" : 24
	},
	{
		"aid" : 18821,
		"to_institution_id" : 78,
		"to_name" : "Stanford University",
		"to_oid" : 92,
		"startdate" : "2014-09-01",
		"to_latitude" : 37.4284807,
		"to_longitude" : -122.1658358,
		"to_rank" : 3,
		"recruiter_type" : 1,
		"description" : "Academic organization (economics department)",
		"aid" : 18821,
		"from_oid" : 20,
		"from_institution_id" : 13,
		"latitude" : 38.9847953,
		"longitude" : -76.9440122,
		"from_institution_name" : "University of Maryland",
		"category_id" : 1,
		"name" : "Development; Growth",
		"rank" : 24
	},
	{
		"aid" : 18821,
		"to_institution_id" : 2112,
		"to_name" : "Fudan University",
		"to_oid" : 3295,
		"startdate" : "2015-12-01",
		"to_latitude" : 31.2974197,
		"to_longitude" : 121.5036178,
		"to_rank" : null,
		"recruiter_type" : 1,
		"description" : "Academic organization (economics department)",
		"aid" : 18821,
		"from_oid" : 20,
		"from_institution_id" : 13,
		"latitude" : 38.9847953,
		"longitude" : -76.9440122,
		"from_institution_name" : "University of Maryland",
		"category_id" : 1,
		"name" : "Development; Growth",
		"rank" : 24
	},
	{
		"aid" : 18821,
		"to_institution_id" : 2112,
		"to_name" : "Fudan University",
		"to_oid" : 3295,
		"startdate" : "2018-12-01",
		"to_latitude" : 31.2974197,
		"to_longitude" : 121.5036178,
		"to_rank" : null,
		"recruiter_type" : 1,
		"description" : "Academic organization (economics department)",
		"aid" : 18821,
		"from_oid" : 20,
		"from_institution_id" : 13,
		"latitude" : 38.9847953,
		"longitude" : -76.9440122,
		"from_institution_name" : "University of Maryland",
		"category_id" : 1,
		"name" : "Development; Growth",
		"rank" : 24
	},
	{
		"aid" : 19658,
		"to_institution_id" : 565,
		"to_name" : "Renmin University",
		"to_oid" : 661,
		"startdate" : "2014-09-01",
		"to_latitude" : 39.9696062,
		"to_longitude" : 116.3188145,
		"to_rank" : null,
		"recruiter_type" : 1,
		"description" : "Academic organization (economics department)",
		"aid" : 19658,
		"from_oid" : 20,
		"from_institution_id" : 13,
		"latitude" : 38.9847953,
		"longitude" : -76.9440122,
		"from_institution_name" : "University of Maryland",
		"category_id" : 1,
		"name" : "Development; Growth",
		"rank" : 24
	},
	{
		"aid" : 20309,
		"to_institution_id" : 33,
		"to_name" : "Michigan State University",
		"to_oid" : 41,
		"startdate" : "2015-09-01",
		"to_latitude" : 42.7323099,
		"to_longitude" : -84.4790719,
		"to_rank" : 73,
		"recruiter_type" : 1,
		"description" : "Academic organization (economics department)",
		"aid" : 20309,
		"from_oid" : 20,
		"from_institution_id" : 13,
		"latitude" : 38.9847953,
		"longitude" : -76.9440122,
		"from_institution_name" : "University of Maryland",
		"category_id" : 1,
		"name" : "Development; Growth",
		"rank" : 24
	},
	{
		"aid" : 20309,
		"to_institution_id" : 1489,
		"to_name" : "International Food Policy Research Institute (IFPRI)",
		"to_oid" : 2600,
		"startdate" : "2015-01-01",
		"to_latitude" : 38.9015167,
		"to_longitude" : -77.0283165,
		"to_rank" : null,
		"recruiter_type" : 7,
		"description" : "Private (non-profit) business or organization",
		"aid" : 20309,
		"from_oid" : 20,
		"from_institution_id" : 13,
		"latitude" : 38.9847953,
		"longitude" : -76.9440122,
		"from_institution_name" : "University of Maryland",
		"category_id" : 1,
		"name" : "Development; Growth",
		"rank" : 24
	},
	{
		"aid" : 20863,
		"to_institution_id" : 595,
		"to_name" : "European Bank for Reconstruction and Development",
		"to_oid" : 698,
		"startdate" : "2006-08-01",
		"to_latitude" : 0,
		"to_longitude" : 0,
		"to_rank" : null,
		"recruiter_type" : 7,
		"description" : "Private (non-profit) business or organization",
		"aid" : 20863,
		"from_oid" : 20,
		"from_institution_id" : 13,
		"latitude" : 38.9847953,
		"longitude" : -76.9440122,
		"from_institution_name" : "University of Maryland",
		"category_id" : 1,
		"name" : "Development; Growth",
		"rank" : 24
	},
	{
		"aid" : 23333,
		"to_institution_id" : 2346,
		"to_name" : "Fannie Mae",
		"to_oid" : 3773,
		"startdate" : "2015-03-01",
		"to_latitude" : 33.0889356,
		"to_longitude" : -96.8173416,
		"to_rank" : null,
		"recruiter_type" : 8,
		"description" : "Other type of organization",
		"aid" : 23333,
		"from_oid" : 20,
		"from_institution_id" : 13,
		"latitude" : 38.9847953,
		"longitude" : -76.9440122,
		"from_institution_name" : "University of Maryland",
		"category_id" : 1,
		"name" : "Development; Growth",
		"rank" : 24
	},
	{
		"aid" : 26402,
		"to_institution_id" : 290,
		"to_name" : "Yale University",
		"to_oid" : 336,
		"startdate" : "2006-01-01",
		"to_latitude" : 41.3138919,
		"to_longitude" : -72.9240345,
		"to_rank" : 11,
		"recruiter_type" : 1,
		"description" : "Academic organization (economics department)",
		"aid" : 26402,
		"from_oid" : 20,
		"from_institution_id" : 13,
		"latitude" : 38.9847953,
		"longitude" : -76.9440122,
		"from_institution_name" : "University of Maryland",
		"category_id" : 1,
		"name" : "Development; Growth",
		"rank" : 24
	},
	{
		"aid" : 26402,
		"to_institution_id" : 290,
		"to_name" : "Yale University",
		"to_oid" : 336,
		"startdate" : "2007-01-01",
		"to_latitude" : 41.3138919,
		"to_longitude" : -72.9240345,
		"to_rank" : 11,
		"recruiter_type" : 1,
		"description" : "Academic organization (economics department)",
		"aid" : 26402,
		"from_oid" : 20,
		"from_institution_id" : 13,
		"latitude" : 38.9847953,
		"longitude" : -76.9440122,
		"from_institution_name" : "University of Maryland",
		"category_id" : 1,
		"name" : "Development; Growth",
		"rank" : 24
	},
	{
		"aid" : 26402,
		"to_institution_id" : 290,
		"to_name" : "Yale University",
		"to_oid" : 336,
		"startdate" : "2012-01-01",
		"to_latitude" : 41.3138919,
		"to_longitude" : -72.9240345,
		"to_rank" : 11,
		"recruiter_type" : 1,
		"description" : "Academic organization (economics department)",
		"aid" : 26402,
		"from_oid" : 20,
		"from_institution_id" : 13,
		"latitude" : 38.9847953,
		"longitude" : -76.9440122,
		"from_institution_name" : "University of Maryland",
		"category_id" : 1,
		"name" : "Development; Growth",
		"rank" : 24
	},
	{
		"aid" : 26402,
		"to_institution_id" : 290,
		"to_name" : "Yale University",
		"to_oid" : 336,
		"startdate" : "2015-01-01",
		"to_latitude" : 41.3138919,
		"to_longitude" : -72.9240345,
		"to_rank" : 11,
		"recruiter_type" : 1,
		"description" : "Academic organization (economics department)",
		"aid" : 26402,
		"from_oid" : 20,
		"from_institution_id" : 13,
		"latitude" : 38.9847953,
		"longitude" : -76.9440122,
		"from_institution_name" : "University of Maryland",
		"category_id" : 1,
		"name" : "Development; Growth",
		"rank" : 24
	},
	{
		"aid" : 27744,
		"to_institution_id" : 579,
		"to_name" : "University of Cologne (Universität zu Köln)",
		"to_oid" : 676,
		"startdate" : "2010-03-08",
		"to_latitude" : 50.9281625,
		"to_longitude" : 6.9288192,
		"to_rank" : 38,
		"recruiter_type" : 1,
		"description" : "Academic organization (economics department)",
		"aid" : 27744,
		"from_oid" : 20,
		"from_institution_id" : 13,
		"latitude" : 38.9847953,
		"longitude" : -76.9440122,
		"from_institution_name" : "University of Maryland",
		"category_id" : 1,
		"name" : "Development; Growth",
		"rank" : 24
	},
	{
		"aid" : 32329,
		"to_institution_id" : 445,
		"to_name" : "Xiamen University",
		"to_oid" : 514,
		"startdate" : "2017-08-01",
		"to_latitude" : 24.4373484,
		"to_longitude" : 118.097855,
		"to_rank" : null,
		"recruiter_type" : 1,
		"description" : "Academic organization (economics department)",
		"aid" : 32329,
		"from_oid" : 20,
		"from_institution_id" : 13,
		"latitude" : 38.9847953,
		"longitude" : -76.9440122,
		"from_institution_name" : "University of Maryland",
		"category_id" : 1,
		"name" : "Development; Growth",
		"rank" : 24
	},
	{
		"aid" : 33935,
		"to_institution_id" : 424,
		"to_name" : "World Bank",
		"to_oid" : 1244,
		"startdate" : "2017-08-01",
		"to_latitude" : 52.5009041,
		"to_longitude" : 13.4129247,
		"to_rank" : null,
		"recruiter_type" : 8,
		"description" : "Other type of organization",
		"aid" : 33935,
		"from_oid" : 20,
		"from_institution_id" : 13,
		"latitude" : 38.9847953,
		"longitude" : -76.9440122,
		"from_institution_name" : "University of Maryland",
		"category_id" : 1,
		"name" : "Development; Growth",
		"rank" : 24
	},
	{
		"aid" : 35104,
		"to_institution_id" : 78,
		"to_name" : "Stanford University",
		"to_oid" : 92,
		"startdate" : "2016-01-01",
		"to_latitude" : 37.4284807,
		"to_longitude" : -122.1658358,
		"to_rank" : 3,
		"recruiter_type" : 1,
		"description" : "Academic organization (economics department)",
		"aid" : 35104,
		"from_oid" : 20,
		"from_institution_id" : 13,
		"latitude" : 38.9847953,
		"longitude" : -76.9440122,
		"from_institution_name" : "University of Maryland",
		"category_id" : 1,
		"name" : "Development; Growth",
		"rank" : 24
	},
	{
		"aid" : 35104,
		"to_institution_id" : 535,
		"to_name" : "Tsinghua University",
		"to_oid" : 623,
		"startdate" : "2010-08-01",
		"to_latitude" : 39.999567,
		"to_longitude" : 116.331991,
		"to_rank" : 86,
		"recruiter_type" : 1,
		"description" : "Academic organization (economics department)",
		"aid" : 35104,
		"from_oid" : 20,
		"from_institution_id" : 13,
		"latitude" : 38.9847953,
		"longitude" : -76.9440122,
		"from_institution_name" : "University of Maryland",
		"category_id" : 1,
		"name" : "Development; Growth",
		"rank" : 24
	},
	{
		"aid" : 35104,
		"to_institution_id" : 535,
		"to_name" : "Tsinghua University",
		"to_oid" : 623,
		"startdate" : "2013-01-01",
		"to_latitude" : 39.999567,
		"to_longitude" : 116.331991,
		"to_rank" : 86,
		"recruiter_type" : 1,
		"description" : "Academic organization (economics department)",
		"aid" : 35104,
		"from_oid" : 20,
		"from_institution_id" : 13,
		"latitude" : 38.9847953,
		"longitude" : -76.9440122,
		"from_institution_name" : "University of Maryland",
		"category_id" : 1,
		"name" : "Development; Growth",
		"rank" : 24
	},
	{
		"aid" : 43421,
		"to_institution_id" : 33,
		"to_name" : "Michigan State University",
		"to_oid" : 41,
		"startdate" : "2015-07-01",
		"to_latitude" : 42.7323099,
		"to_longitude" : -84.4790719,
		"to_rank" : 73,
		"recruiter_type" : 1,
		"description" : "Academic organization (economics department)",
		"aid" : 43421,
		"from_oid" : 20,
		"from_institution_id" : 13,
		"latitude" : 38.9847953,
		"longitude" : -76.9440122,
		"from_institution_name" : "University of Maryland",
		"category_id" : 1,
		"name" : "Development; Growth",
		"rank" : 24
	},
	{
		"aid" : 3551,
		"to_institution_id" : 628,
		"to_name" : "University at Albany (SUNY)",
		"to_oid" : 740,
		"startdate" : "2008-01-01",
		"to_latitude" : 42.6525793,
		"to_longitude" : -73.7562317,
		"to_rank" : null,
		"recruiter_type" : 1,
		"description" : "Academic organization (economics department)",
		"aid" : 3551,
		"from_oid" : 20,
		"from_institution_id" : 13,
		"latitude" : 38.9847953,
		"longitude" : -76.9440122,
		"from_institution_name" : "University of Maryland",
		"category_id" : 2,
		"name" : "Econometrics",
		"rank" : 24
	},
	{
		"aid" : 3551,
		"to_institution_id" : 989,
		"to_name" : "Johann Wolfgang Goethe-University Frankfurt am Main",
		"to_oid" : 1367,
		"startdate" : "2003-08-01",
		"to_latitude" : 50.1270675,
		"to_longitude" : 8.6677635,
		"to_rank" : null,
		"recruiter_type" : 1,
		"description" : "Academic organization (economics department)",
		"aid" : 3551,
		"from_oid" : 20,
		"from_institution_id" : 13,
		"latitude" : 38.9847953,
		"longitude" : -76.9440122,
		"from_institution_name" : "University of Maryland",
		"category_id" : 2,
		"name" : "Econometrics",
		"rank" : 24
	},
	{
		"aid" : 3551,
		"to_institution_id" : 638,
		"to_name" : "Institute for Advanced Studies Vienna (Institut für Höhere Studien)",
		"to_oid" : 751,
		"startdate" : "2008-09-01",
		"to_latitude" : 48.1954066,
		"to_longitude" : 16.3430186,
		"to_rank" : null,
		"recruiter_type" : 7,
		"description" : "Private (non-profit) business or organization",
		"aid" : 3551,
		"from_oid" : 20,
		"from_institution_id" : 13,
		"latitude" : 38.9847953,
		"longitude" : -76.9440122,
		"from_institution_name" : "University of Maryland",
		"category_id" : 2,
		"name" : "Econometrics",
		"rank" : 24
	},
	{
		"aid" : 3551,
		"to_institution_id" : 2381,
		"to_name" : "EBS Universität für Wirtschaft und Recht",
		"to_oid" : 3838,
		"startdate" : "2011-01-01",
		"to_latitude" : 50.0124097,
		"to_longitude" : 8.0504294,
		"to_rank" : null,
		"recruiter_type" : 1,
		"description" : "Academic organization (economics department)",
		"aid" : 3551,
		"from_oid" : 20,
		"from_institution_id" : 13,
		"latitude" : 38.9847953,
		"longitude" : -76.9440122,
		"from_institution_name" : "University of Maryland",
		"category_id" : 2,
		"name" : "Econometrics",
		"rank" : 24
	},
	{
		"aid" : 21358,
		"to_institution_id" : 13,
		"to_name" : "University of Maryland",
		"to_oid" : 20,
		"startdate" : "2012-01-01",
		"to_latitude" : 38.9847953,
		"to_longitude" : -76.9440122,
		"to_rank" : 24,
		"recruiter_type" : 1,
		"description" : "Academic organization (economics department)",
		"aid" : 21358,
		"from_oid" : 20,
		"from_institution_id" : 13,
		"latitude" : 38.9847953,
		"longitude" : -76.9440122,
		"from_institution_name" : "University of Maryland",
		"category_id" : 2,
		"name" : "Econometrics",
		"rank" : 24
	},
	{
		"aid" : 33703,
		"to_institution_id" : 445,
		"to_name" : "Xiamen University",
		"to_oid" : 514,
		"startdate" : "2017-08-01",
		"to_latitude" : 24.4373484,
		"to_longitude" : 118.097855,
		"to_rank" : null,
		"recruiter_type" : 1,
		"description" : "Academic organization (economics department)",
		"aid" : 33703,
		"from_oid" : 20,
		"from_institution_id" : 13,
		"latitude" : 38.9847953,
		"longitude" : -76.9440122,
		"from_institution_name" : "University of Maryland",
		"category_id" : 2,
		"name" : "Econometrics",
		"rank" : 24
	},
	{
		"aid" : 42164,
		"to_institution_id" : 137,
		"to_name" : "University of Pennsylvania",
		"to_oid" : 157,
		"startdate" : "2010-09-01",
		"to_latitude" : 39.953339,
		"to_longitude" : -75.194527,
		"to_rank" : 6,
		"recruiter_type" : 1,
		"description" : "Academic organization (economics department)",
		"aid" : 42164,
		"from_oid" : 20,
		"from_institution_id" : 13,
		"latitude" : 38.9847953,
		"longitude" : -76.9440122,
		"from_institution_name" : "University of Maryland",
		"category_id" : 2,
		"name" : "Econometrics",
		"rank" : 24
	},
	{
		"aid" : 42164,
		"to_institution_id" : 1058,
		"to_name" : "Koç University",
		"to_oid" : 2581,
		"startdate" : "2003-10-01",
		"to_latitude" : null,
		"to_longitude" : null,
		"to_rank" : null,
		"recruiter_type" : 2,
		"description" : "Academic organization (business school)",
		"aid" : 42164,
		"from_oid" : 20,
		"from_institution_id" : 13,
		"latitude" : 38.9847953,
		"longitude" : -76.9440122,
		"from_institution_name" : "University of Maryland",
		"category_id" : 2,
		"name" : "Econometrics",
		"rank" : 24
	},
	{
		"aid" : 42164,
		"to_institution_id" : 1058,
		"to_name" : "Koç University",
		"to_oid" : 2581,
		"startdate" : "2010-10-01",
		"to_latitude" : null,
		"to_longitude" : null,
		"to_rank" : null,
		"recruiter_type" : 2,
		"description" : "Academic organization (business school)",
		"aid" : 42164,
		"from_oid" : 20,
		"from_institution_id" : 13,
		"latitude" : 38.9847953,
		"longitude" : -76.9440122,
		"from_institution_name" : "University of Maryland",
		"category_id" : 2,
		"name" : "Econometrics",
		"rank" : 24
	},
	{
		"aid" : 18981,
		"to_institution_id" : 399,
		"to_name" : "Central University of Finance and Economics",
		"to_oid" : 464,
		"startdate" : "2014-09-01",
		"to_latitude" : 40.169887,
		"to_longitude" : 116.283102,
		"to_rank" : null,
		"recruiter_type" : 4,
		"description" : "Academic organization (other than econ, business, or ag econ)",
		"aid" : 18981,
		"from_oid" : 20,
		"from_institution_id" : 13,
		"latitude" : 38.9847953,
		"longitude" : -76.9440122,
		"from_institution_name" : "University of Maryland",
		"category_id" : 3,
		"name" : "Economic History",
		"rank" : 24
	},
	{
		"aid" : 21427,
		"to_institution_id" : 524,
		"to_name" : "Weber State University",
		"to_oid" : 608,
		"startdate" : "2014-09-01",
		"to_latitude" : 41.1939116,
		"to_longitude" : -111.9451049,
		"to_rank" : null,
		"recruiter_type" : 1,
		"description" : "Academic organization (economics department)",
		"aid" : 21427,
		"from_oid" : 20,
		"from_institution_id" : 13,
		"latitude" : 38.9847953,
		"longitude" : -76.9440122,
		"from_institution_name" : "University of Maryland",
		"category_id" : 3,
		"name" : "Economic History",
		"rank" : 24
	},
	{
		"aid" : 44561,
		"to_institution_id" : 702,
		"to_name" : "Universidad del Rosario",
		"to_oid" : 832,
		"startdate" : "2020-07-01",
		"to_latitude" : 4.6001576,
		"to_longitude" : -74.0734574,
		"to_rank" : null,
		"recruiter_type" : 1,
		"description" : "Academic organization (economics department)",
		"aid" : 44561,
		"from_oid" : 20,
		"from_institution_id" : 13,
		"latitude" : 38.9847953,
		"longitude" : -76.9440122,
		"from_institution_name" : "University of Maryland",
		"category_id" : 3,
		"name" : "Economic History",
		"rank" : 24
	},
	{
		"aid" : 2743,
		"to_institution_id" : 1746,
		"to_name" : "University of Manitoba",
		"to_oid" : 2544,
		"startdate" : "2009-09-01",
		"to_latitude" : 49.8075008,
		"to_longitude" : -97.1366259,
		"to_rank" : null,
		"recruiter_type" : 1,
		"description" : "Academic organization (economics department)",
		"aid" : 2743,
		"from_oid" : 20,
		"from_institution_id" : 13,
		"latitude" : 38.9847953,
		"longitude" : -76.9440122,
		"from_institution_name" : "University of Maryland",
		"category_id" : 4,
		"name" : "Environmental; Ag. Econ.",
		"rank" : 24
	},
	{
		"aid" : 2743,
		"to_institution_id" : 1746,
		"to_name" : "University of Manitoba",
		"to_oid" : 2544,
		"startdate" : "2015-03-01",
		"to_latitude" : 49.8075008,
		"to_longitude" : -97.1366259,
		"to_rank" : null,
		"recruiter_type" : 1,
		"description" : "Academic organization (economics department)",
		"aid" : 2743,
		"from_oid" : 20,
		"from_institution_id" : 13,
		"latitude" : 38.9847953,
		"longitude" : -76.9440122,
		"from_institution_name" : "University of Maryland",
		"category_id" : 4,
		"name" : "Environmental; Ag. Econ.",
		"rank" : 24
	},
	{
		"aid" : 2906,
		"to_institution_id" : 1851,
		"to_name" : "University of Wisconsin, Whitewater",
		"to_oid" : 2738,
		"startdate" : "2003-01-01",
		"to_latitude" : 42.8411986,
		"to_longitude" : -88.7430845,
		"to_rank" : null,
		"recruiter_type" : 2,
		"description" : "Academic organization (business school)",
		"aid" : 2906,
		"from_oid" : 20,
		"from_institution_id" : 13,
		"latitude" : 38.9847953,
		"longitude" : -76.9440122,
		"from_institution_name" : "University of Maryland",
		"category_id" : 4,
		"name" : "Environmental; Ag. Econ.",
		"rank" : 24
	},
	{
		"aid" : 5462,
		"to_institution_id" : 13,
		"to_name" : "University of Maryland",
		"to_oid" : 221,
		"startdate" : "2013-08-01",
		"to_latitude" : 38.9870833,
		"to_longitude" : -76.9406622,
		"to_rank" : 24,
		"recruiter_type" : 3,
		"description" : "Academic organization (agricultural/resource economics department)",
		"aid" : 5462,
		"from_oid" : 20,
		"from_institution_id" : 13,
		"latitude" : 38.9847953,
		"longitude" : -76.9440122,
		"from_institution_name" : "University of Maryland",
		"category_id" : 4,
		"name" : "Environmental; Ag. Econ.",
		"rank" : 24
	},
	{
		"aid" : 5895,
		"to_institution_id" : 838,
		"to_name" : "ETH Zurich (Swiss Federal Institute of Technology; Eidgenössische Technische Hochschule)",
		"to_oid" : 1004,
		"startdate" : "2009-01-01",
		"to_latitude" : 47.376313,
		"to_longitude" : 8.5476699,
		"to_rank" : null,
		"recruiter_type" : 2,
		"description" : "Academic organization (business school)",
		"aid" : 5895,
		"from_oid" : 20,
		"from_institution_id" : 13,
		"latitude" : 38.9847953,
		"longitude" : -76.9440122,
		"from_institution_name" : "University of Maryland",
		"category_id" : 4,
		"name" : "Environmental; Ag. Econ.",
		"rank" : 24
	},
	{
		"aid" : 5895,
		"to_institution_id" : 1696,
		"to_name" : "University of Basel (Universität Basel)",
		"to_oid" : 2450,
		"startdate" : "2010-01-01",
		"to_latitude" : 47.5639202,
		"to_longitude" : 7.5799639,
		"to_rank" : null,
		"recruiter_type" : 1,
		"description" : "Academic organization (economics department)",
		"aid" : 5895,
		"from_oid" : 20,
		"from_institution_id" : 13,
		"latitude" : 38.9847953,
		"longitude" : -76.9440122,
		"from_institution_name" : "University of Maryland",
		"category_id" : 4,
		"name" : "Environmental; Ag. Econ.",
		"rank" : 24
	},
	{
		"aid" : 5895,
		"to_institution_id" : 1696,
		"to_name" : "University of Basel (Universität Basel)",
		"to_oid" : 2450,
		"startdate" : "2015-01-01",
		"to_latitude" : 47.5639202,
		"to_longitude" : 7.5799639,
		"to_rank" : null,
		"recruiter_type" : 1,
		"description" : "Academic organization (economics department)",
		"aid" : 5895,
		"from_oid" : 20,
		"from_institution_id" : 13,
		"latitude" : 38.9847953,
		"longitude" : -76.9440122,
		"from_institution_name" : "University of Maryland",
		"category_id" : 4,
		"name" : "Environmental; Ag. Econ.",
		"rank" : 24
	},
	{
		"aid" : 6045,
		"to_institution_id" : 894,
		"to_name" : "University of Gothenburg (Göteborgs Universitet)",
		"to_oid" : 1077,
		"startdate" : "2011-09-01",
		"to_latitude" : 57.6965922,
		"to_longitude" : 11.9615751,
		"to_rank" : 100,
		"recruiter_type" : 1,
		"description" : "Academic organization (economics department)",
		"aid" : 6045,
		"from_oid" : 20,
		"from_institution_id" : 13,
		"latitude" : 38.9847953,
		"longitude" : -76.9440122,
		"from_institution_name" : "University of Maryland",
		"category_id" : 4,
		"name" : "Environmental; Ag. Econ.",
		"rank" : 24
	},